header: 
  seq: 59765
  stamp: 
    secs: 1782211604
    nsecs: 767361641
  frame_id: map
pose: 
  pose: 
    position: 
      x: -3.02031946182
      y: -0.150762304664
      z: 0.0
    orientation: 
      x: 0.0
      y: 0.0
      z: -0.702114449762
      w: 0.712064111886
  covariance: [0.0, 0.0, 0.0, 0.0, 0.0, 0.0, 0.0, 0.0, 0.0, 0.0, 0.0, 0.0, 0.0, 0.0, 0.0, 0.0, 0.0, 0.0, 0.0, 0.0, 0.0, 0.0, 0.0, 0.0, 0.0, 0.0, 0.0, 0.0, 0.0, 0.0, 0.0, 0.0, 0.0, 0.0, 0.0, 0.0]
---
header: 
  seq: 59766
  stamp: 
    secs: 1782211604
    nsecs: 802963972
  frame_id: map
pose: 
  pose: 
    position: 
      x: -3.02031946182
      y: -0.150762304664
      z: 0.0
    orientation: 
      x: 0.0
      y: 0.0
      z: -0.702114449762
      w: 0.712064111886
  covariance: [0.0, 0.0, 0.0, 0.0, 0.0, 0.0, 0.0, 0.0, 0.0, 0.0, 0.0, 0.0, 0.0, 0.0, 0.0, 0.0, 0.0, 0.0, 0.0, 0.0, 0.0, 0.0, 0.0, 0.0, 0.0, 0.0, 0.0, 0.0, 0.0, 0.0, 0.0, 0.0, 0.0, 0.0, 0.0, 0.0]
---
header: 
  seq: 59767
  stamp: 
    secs: 1782211604
    nsecs: 802963972
  frame_id: map
pose: 
  pose: 
    position: 
      x: -3.02031946182
      y: -0.150762304664
      z: 0.0
    orientation: 
      x: 0.0
      y: 0.0
      z: -0.702114449762
      w: 0.712064111886
  covariance: [0.0, 0.0, 0.0, 0.0, 0.0, 0.0, 0.0, 0.0, 0.0, 0.0, 0.0, 0.0, 0.0, 0.0, 0.0, 0.0, 0.0, 0.0, 0.0, 0.0, 0.0, 0.0, 0.0, 0.0, 0.0, 0.0, 0.0, 0.0, 0.0, 0.0, 0.0, 0.0, 0.0, 0.0, 0.0, 0.0]
---
header: 
  seq: 59768
  stamp: 
    secs: 1782211604
    nsecs: 838567495
  frame_id: map
pose: 
  pose: 
    position: 
      x: -3.02031946182
      y: -0.150762304664
      z: 0.0
    orientation: 
      x: 0.0
      y: 0.0
      z: -0.702114449762
      w: 0.712064111886
  covariance: [0.0, 0.0, 0.0, 0.0, 0.0, 0.0, 0.0, 0.0, 0.0, 0.0, 0.0, 0.0, 0.0, 0.0, 0.0, 0.0, 0.0, 0.0, 0.0, 0.0, 0.0, 0.0, 0.0, 0.0, 0.0, 0.0, 0.0, 0.0, 0.0, 0.0, 0.0, 0.0, 0.0, 0.0, 0.0, 0.0]
---
header: 
  seq: 59769
  stamp: 
    secs: 1782211604
    nsecs: 838567495
  frame_id: map
pose: 
  pose: 
    position: 
      x: -3.02031946182
      y: -0.150762304664
      z: 0.0
    orientation: 
      x: 0.0
      y: 0.0
      z: -0.702114449762
      w: 0.712064111886
  covariance: [0.0, 0.0, 0.0, 0.0, 0.0, 0.0, 0.0, 0.0, 0.0, 0.0, 0.0, 0.0, 0.0, 0.0, 0.0, 0.0, 0.0, 0.0, 0.0, 0.0, 0.0, 0.0, 0.0, 0.0, 0.0, 0.0, 0.0, 0.0, 0.0, 0.0, 0.0, 0.0, 0.0, 0.0, 0.0, 0.0]
---
header: 
  seq: 59770
  stamp: 
    secs: 1782211604
    nsecs: 874191523
  frame_id: map
pose: 
  pose: 
    position: 
      x: -3.02031946182
      y: -0.150762304664
      z: 0.0
    orientation: 
      x: 0.0
      y: 0.0
      z: -0.702114449762
      w: 0.712064111886
  covariance: [0.0, 0.0, 0.0, 0.0, 0.0, 0.0, 0.0, 0.0, 0.0, 0.0, 0.0, 0.0, 0.0, 0.0, 0.0, 0.0, 0.0, 0.0, 0.0, 0.0, 0.0, 0.0, 0.0, 0.0, 0.0, 0.0, 0.0, 0.0, 0.0, 0.0, 0.0, 0.0, 0.0, 0.0, 0.0, 0.0]
---
header: 
  seq: 59771
  stamp: 
    secs: 1782211604
    nsecs: 874191523
  frame_id: map
pose: 
  pose: 
    position: 
      x: -3.02031946182
      y: -0.150762304664
      z: 0.0
    orientation: 
      x: 0.0
      y: 0.0
      z: -0.702114449762
      w: 0.712064111886
  covariance: [0.0, 0.0, 0.0, 0.0, 0.0, 0.0, 0.0, 0.0, 0.0, 0.0, 0.0, 0.0, 0.0, 0.0, 0.0, 0.0, 0.0, 0.0, 0.0, 0.0, 0.0, 0.0, 0.0, 0.0, 0.0, 0.0, 0.0, 0.0, 0.0, 0.0, 0.0, 0.0, 0.0, 0.0, 0.0, 0.0]
---
header: 
  seq: 59772
  stamp: 
    secs: 1782211604
    nsecs: 909878254
  frame_id: map
pose: 
  pose: 
    position: 
      x: -3.02031946182
      y: -0.150762304664
      z: 0.0
    orientation: 
      x: 0.0
      y: 0.0
      z: -0.702114449762
      w: 0.712064111886
  covariance: [0.0, 0.0, 0.0, 0.0, 0.0, 0.0, 0.0, 0.0, 0.0, 0.0, 0.0, 0.0, 0.0, 0.0, 0.0, 0.0, 0.0, 0.0, 0.0, 0.0, 0.0, 0.0, 0.0, 0.0, 0.0, 0.0, 0.0, 0.0, 0.0, 0.0, 0.0, 0.0, 0.0, 0.0, 0.0, 0.0]
---
header: 
  seq: 59773
  stamp: 
    secs: 1782211604
    nsecs: 909878254
  frame_id: map
pose: 
  pose: 
    position: 
      x: -3.02031946182
      y: -0.150762304664
      z: 0.0
    orientation: 
      x: 0.0
      y: 0.0
      z: -0.702114449762
      w: 0.712064111886
  covariance: [0.0, 0.0, 0.0, 0.0, 0.0, 0.0, 0.0, 0.0, 0.0, 0.0, 0.0, 0.0, 0.0, 0.0, 0.0, 0.0, 0.0, 0.0, 0.0, 0.0, 0.0, 0.0, 0.0, 0.0, 0.0, 0.0, 0.0, 0.0, 0.0, 0.0, 0.0, 0.0, 0.0, 0.0, 0.0, 0.0]
---
header: 
  seq: 59774
  stamp: 
    secs: 1782211604
    nsecs: 945436954
  frame_id: map
pose: 
  pose: 
    position: 
      x: -3.02031946182
      y: -0.150762304664
      z: 0.0
    orientation: 
      x: 0.0
      y: 0.0
      z: -0.702114449762
      w: 0.712064111886
  covariance: [0.0, 0.0, 0.0, 0.0, 0.0, 0.0, 0.0, 0.0, 0.0, 0.0, 0.0, 0.0, 0.0, 0.0, 0.0, 0.0, 0.0, 0.0, 0.0, 0.0, 0.0, 0.0, 0.0, 0.0, 0.0, 0.0, 0.0, 0.0, 0.0, 0.0, 0.0, 0.0, 0.0, 0.0, 0.0, 0.0]
---
header: 
  seq: 59775
  stamp: 
    secs: 1782211604
    nsecs: 945436954
  frame_id: map
pose: 
  pose: 
    position: 
      x: -3.02031946182
      y: -0.150762304664
      z: 0.0
    orientation: 
      x: 0.0
      y: 0.0
      z: -0.702114449762
      w: 0.712064111886
  covariance: [0.0, 0.0, 0.0, 0.0, 0.0, 0.0, 0.0, 0.0, 0.0, 0.0, 0.0, 0.0, 0.0, 0.0, 0.0, 0.0, 0.0, 0.0, 0.0, 0.0, 0.0, 0.0, 0.0, 0.0, 0.0, 0.0, 0.0, 0.0, 0.0, 0.0, 0.0, 0.0, 0.0, 0.0, 0.0, 0.0]
---
header: 
  seq: 59776
  stamp: 
    secs: 1782211604
    nsecs: 981163740
  frame_id: map
pose: 
  pose: 
    position: 
      x: -3.02031946182
      y: -0.150762304664
      z: 0.0
    orientation: 
      x: 0.0
      y: 0.0
      z: -0.702114449762
      w: 0.712064111886
  covariance: [0.0, 0.0, 0.0, 0.0, 0.0, 0.0, 0.0, 0.0, 0.0, 0.0, 0.0, 0.0, 0.0, 0.0, 0.0, 0.0, 0.0, 0.0, 0.0, 0.0, 0.0, 0.0, 0.0, 0.0, 0.0, 0.0, 0.0, 0.0, 0.0, 0.0, 0.0, 0.0, 0.0, 0.0, 0.0, 0.0]
---
header: 
  seq: 59777
  stamp: 
    secs: 1782211604
    nsecs: 981163740
  frame_id: map
pose: 
  pose: 
    position: 
      x: -3.02031946182
      y: -0.150762304664
      z: 0.0
    orientation: 
      x: 0.0
      y: 0.0
      z: -0.702114449762
      w: 0.712064111886
  covariance: [0.0, 0.0, 0.0, 0.0, 0.0, 0.0, 0.0, 0.0, 0.0, 0.0, 0.0, 0.0, 0.0, 0.0, 0.0, 0.0, 0.0, 0.0, 0.0, 0.0, 0.0, 0.0, 0.0, 0.0, 0.0, 0.0, 0.0, 0.0, 0.0, 0.0, 0.0, 0.0, 0.0, 0.0, 0.0, 0.0]
---
header: 
  seq: 59778
  stamp: 
    secs: 1782211605
    nsecs:  16752720
  frame_id: map
pose: 
  pose: 
    position: 
      x: -3.02031946182
      y: -0.150762304664
      z: 0.0
    orientation: 
      x: 0.0
      y: 0.0
      z: -0.702114449762
      w: 0.712064111886
  covariance: [0.0, 0.0, 0.0, 0.0, 0.0, 0.0, 0.0, 0.0, 0.0, 0.0, 0.0, 0.0, 0.0, 0.0, 0.0, 0.0, 0.0, 0.0, 0.0, 0.0, 0.0, 0.0, 0.0, 0.0, 0.0, 0.0, 0.0, 0.0, 0.0, 0.0, 0.0, 0.0, 0.0, 0.0, 0.0, 0.0]
---
header: 
  seq: 59779
  stamp: 
    secs: 1782211605
    nsecs:  16752720
  frame_id: map
pose: 
  pose: 
    position: 
      x: -3.02031946182
      y: -0.150762304664
      z: 0.0
    orientation: 
      x: 0.0
      y: 0.0
      z: -0.702114449762
      w: 0.712064111886
  covariance: [0.0, 0.0, 0.0, 0.0, 0.0, 0.0, 0.0, 0.0, 0.0, 0.0, 0.0, 0.0, 0.0, 0.0, 0.0, 0.0, 0.0, 0.0, 0.0, 0.0, 0.0, 0.0, 0.0, 0.0, 0.0, 0.0, 0.0, 0.0, 0.0, 0.0, 0.0, 0.0, 0.0, 0.0, 0.0, 0.0]
---
header: 
  seq: 59780
  stamp: 
    secs: 1782211605
    nsecs:  52320480
  frame_id: map
pose: 
  pose: 
    position: 
      x: -3.02031946182
      y: -0.150762304664
      z: 0.0
    orientation: 
      x: 0.0
      y: 0.0
      z: -0.702114449762
      w: 0.712064111886
  covariance: [0.0, 0.0, 0.0, 0.0, 0.0, 0.0, 0.0, 0.0, 0.0, 0.0, 0.0, 0.0, 0.0, 0.0, 0.0, 0.0, 0.0, 0.0, 0.0, 0.0, 0.0, 0.0, 0.0, 0.0, 0.0, 0.0, 0.0, 0.0, 0.0, 0.0, 0.0, 0.0, 0.0, 0.0, 0.0, 0.0]
---
header: 
  seq: 59781
  stamp: 
    secs: 1782211605
    nsecs:  87881565
  frame_id: map
pose: 
  pose: 
    position: 
      x: -3.02031946182
      y: -0.150762304664
      z: 0.0
    orientation: 
      x: 0.0
      y: 0.0
      z: -0.702114449762
      w: 0.712064111886
  covariance: [0.0, 0.0, 0.0, 0.0, 0.0, 0.0, 0.0, 0.0, 0.0, 0.0, 0.0, 0.0, 0.0, 0.0, 0.0, 0.0, 0.0, 0.0, 0.0, 0.0, 0.0, 0.0, 0.0, 0.0, 0.0, 0.0, 0.0, 0.0, 0.0, 0.0, 0.0, 0.0, 0.0, 0.0, 0.0, 0.0]
---
header: 
  seq: 59782
  stamp: 
    secs: 1782211605
    nsecs: 123504162
  frame_id: map
pose: 
  pose: 
    position: 
      x: -3.02031946182
      y: -0.150762304664
      z: 0.0
    orientation: 
      x: 0.0
      y: 0.0
      z: -0.702114449762
      w: 0.712064111886
  covariance: [0.0, 0.0, 0.0, 0.0, 0.0, 0.0, 0.0, 0.0, 0.0, 0.0, 0.0, 0.0, 0.0, 0.0, 0.0, 0.0, 0.0, 0.0, 0.0, 0.0, 0.0, 0.0, 0.0, 0.0, 0.0, 0.0, 0.0, 0.0, 0.0, 0.0, 0.0, 0.0, 0.0, 0.0, 0.0, 0.0]
---
header: 
  seq: 59783
  stamp: 
    secs: 1782211605
    nsecs: 123504162
  frame_id: map
pose: 
  pose: 
    position: 
      x: -3.02031946182
      y: -0.150762304664
      z: 0.0
    orientation: 
      x: 0.0
      y: 0.0
      z: -0.702114449762
      w: 0.712064111886
  covariance: [0.0, 0.0, 0.0, 0.0, 0.0, 0.0, 0.0, 0.0, 0.0, 0.0, 0.0, 0.0, 0.0, 0.0, 0.0, 0.0, 0.0, 0.0, 0.0, 0.0, 0.0, 0.0, 0.0, 0.0, 0.0, 0.0, 0.0, 0.0, 0.0, 0.0, 0.0, 0.0, 0.0, 0.0, 0.0, 0.0]
---
header: 
  seq: 59784
  stamp: 
    secs: 1782211605
    nsecs: 159116745
  frame_id: map
pose: 
  pose: 
    position: 
      x: -3.02031946182
      y: -0.150762304664
      z: 0.0
    orientation: 
      x: 0.0
      y: 0.0
      z: -0.702114449762
      w: 0.712064111886
  covariance: [0.0, 0.0, 0.0, 0.0, 0.0, 0.0, 0.0, 0.0, 0.0, 0.0, 0.0, 0.0, 0.0, 0.0, 0.0, 0.0, 0.0, 0.0, 0.0, 0.0, 0.0, 0.0, 0.0, 0.0, 0.0, 0.0, 0.0, 0.0, 0.0, 0.0, 0.0, 0.0, 0.0, 0.0, 0.0, 0.0]
---
header: 
  seq: 59785
  stamp: 
    secs: 1782211605
    nsecs: 159116745
  frame_id: map
pose: 
  pose: 
    position: 
      x: -3.02031946182
      y: -0.150762304664
      z: 0.0
    orientation: 
      x: 0.0
      y: 0.0
      z: -0.702114449762
      w: 0.712064111886
  covariance: [0.0, 0.0, 0.0, 0.0, 0.0, 0.0, 0.0, 0.0, 0.0, 0.0, 0.0, 0.0, 0.0, 0.0, 0.0, 0.0, 0.0, 0.0, 0.0, 0.0, 0.0, 0.0, 0.0, 0.0, 0.0, 0.0, 0.0, 0.0, 0.0, 0.0, 0.0, 0.0, 0.0, 0.0, 0.0, 0.0]
---
header: 
  seq: 59786
  stamp: 
    secs: 1782211605
    nsecs: 194714546
  frame_id: map
pose: 
  pose: 
    position: 
      x: -3.02031946182
      y: -0.150762304664
      z: 0.0
    orientation: 
      x: 0.0
      y: 0.0
      z: -0.702114449762
      w: 0.712064111886
  covariance: [0.0, 0.0, 0.0, 0.0, 0.0, 0.0, 0.0, 0.0, 0.0, 0.0, 0.0, 0.0, 0.0, 0.0, 0.0, 0.0, 0.0, 0.0, 0.0, 0.0, 0.0, 0.0, 0.0, 0.0, 0.0, 0.0, 0.0, 0.0, 0.0, 0.0, 0.0, 0.0, 0.0, 0.0, 0.0, 0.0]
---
header: 
  seq: 59787
  stamp: 
    secs: 1782211605
    nsecs: 194714546
  frame_id: map
pose: 
  pose: 
    position: 
      x: -3.02031946182
      y: -0.150762304664
      z: 0.0
    orientation: 
      x: 0.0
      y: 0.0
      z: -0.702114449762
      w: 0.712064111886
  covariance: [0.0, 0.0, 0.0, 0.0, 0.0, 0.0, 0.0, 0.0, 0.0, 0.0, 0.0, 0.0, 0.0, 0.0, 0.0, 0.0, 0.0, 0.0, 0.0, 0.0, 0.0, 0.0, 0.0, 0.0, 0.0, 0.0, 0.0, 0.0, 0.0, 0.0, 0.0, 0.0, 0.0, 0.0, 0.0, 0.0]
---
header: 
  seq: 59788
  stamp: 
    secs: 1782211605
    nsecs: 230323553
  frame_id: map
pose: 
  pose: 
    position: 
      x: -3.02031946182
      y: -0.150762304664
      z: 0.0
    orientation: 
      x: 0.0
      y: 0.0
      z: -0.702114449762
      w: 0.712064111886
  covariance: [0.0, 0.0, 0.0, 0.0, 0.0, 0.0, 0.0, 0.0, 0.0, 0.0, 0.0, 0.0, 0.0, 0.0, 0.0, 0.0, 0.0, 0.0, 0.0, 0.0, 0.0, 0.0, 0.0, 0.0, 0.0, 0.0, 0.0, 0.0, 0.0, 0.0, 0.0, 0.0, 0.0, 0.0, 0.0, 0.0]
---
header: 
  seq: 59789
  stamp: 
    secs: 1782211605
    nsecs: 230323553
  frame_id: map
pose: 
  pose: 
    position: 
      x: -3.02031946182
      y: -0.150762304664
      z: 0.0
    orientation: 
      x: 0.0
      y: 0.0
      z: -0.702114449762
      w: 0.712064111886
  covariance: [0.0, 0.0, 0.0, 0.0, 0.0, 0.0, 0.0, 0.0, 0.0, 0.0, 0.0, 0.0, 0.0, 0.0, 0.0, 0.0, 0.0, 0.0, 0.0, 0.0, 0.0, 0.0, 0.0, 0.0, 0.0, 0.0, 0.0, 0.0, 0.0, 0.0, 0.0, 0.0, 0.0, 0.0, 0.0, 0.0]
---
header: 
  seq: 59790
  stamp: 
    secs: 1782211605
    nsecs: 265913010
  frame_id: map
pose: 
  pose: 
    position: 
      x: -3.02031946182
      y: -0.150762304664
      z: 0.0
    orientation: 
      x: 0.0
      y: 0.0
      z: -0.702114449762
      w: 0.712064111886
  covariance: [0.0, 0.0, 0.0, 0.0, 0.0, 0.0, 0.0, 0.0, 0.0, 0.0, 0.0, 0.0, 0.0, 0.0, 0.0, 0.0, 0.0, 0.0, 0.0, 0.0, 0.0, 0.0, 0.0, 0.0, 0.0, 0.0, 0.0, 0.0, 0.0, 0.0, 0.0, 0.0, 0.0, 0.0, 0.0, 0.0]
---
header: 
  seq: 59791
  stamp: 
    secs: 1782211605
    nsecs: 265913010
  frame_id: map
pose: 
  pose: 
    position: 
      x: -3.02031946182
      y: -0.150762304664
      z: 0.0
    orientation: 
      x: 0.0
      y: 0.0
      z: -0.702114449762
      w: 0.712064111886
  covariance: [0.0, 0.0, 0.0, 0.0, 0.0, 0.0, 0.0, 0.0, 0.0, 0.0, 0.0, 0.0, 0.0, 0.0, 0.0, 0.0, 0.0, 0.0, 0.0, 0.0, 0.0, 0.0, 0.0, 0.0, 0.0, 0.0, 0.0, 0.0, 0.0, 0.0, 0.0, 0.0, 0.0, 0.0, 0.0, 0.0]
---
header: 
  seq: 59792
  stamp: 
    secs: 1782211605
    nsecs: 301576138
  frame_id: map
pose: 
  pose: 
    position: 
      x: -3.02031946182
      y: -0.150762304664
      z: 0.0
    orientation: 
      x: 0.0
      y: 0.0
      z: -0.702114449762
      w: 0.712064111886
  covariance: [0.0, 0.0, 0.0, 0.0, 0.0, 0.0, 0.0, 0.0, 0.0, 0.0, 0.0, 0.0, 0.0, 0.0, 0.0, 0.0, 0.0, 0.0, 0.0, 0.0, 0.0, 0.0, 0.0, 0.0, 0.0, 0.0, 0.0, 0.0, 0.0, 0.0, 0.0, 0.0, 0.0, 0.0, 0.0, 0.0]
---
header: 
  seq: 59793
  stamp: 
    secs: 1782211605
    nsecs: 301576138
  frame_id: map
pose: 
  pose: 
    position: 
      x: -3.02031946182
      y: -0.150762304664
      z: 0.0
    orientation: 
      x: 0.0
      y: 0.0
      z: -0.702114449762
      w: 0.712064111886
  covariance: [0.0, 0.0, 0.0, 0.0, 0.0, 0.0, 0.0, 0.0, 0.0, 0.0, 0.0, 0.0, 0.0, 0.0, 0.0, 0.0, 0.0, 0.0, 0.0, 0.0, 0.0, 0.0, 0.0, 0.0, 0.0, 0.0, 0.0, 0.0, 0.0, 0.0, 0.0, 0.0, 0.0, 0.0, 0.0, 0.0]
---
header: 
  seq: 59794
  stamp: 
    secs: 1782211605
    nsecs: 337139130
  frame_id: map
pose: 
  pose: 
    position: 
      x: -3.02031946182
      y: -0.150762304664
      z: 0.0
    orientation: 
      x: 0.0
      y: 0.0
      z: -0.702114449762
      w: 0.712064111886
  covariance: [0.0, 0.0, 0.0, 0.0, 0.0, 0.0, 0.0, 0.0, 0.0, 0.0, 0.0, 0.0, 0.0, 0.0, 0.0, 0.0, 0.0, 0.0, 0.0, 0.0, 0.0, 0.0, 0.0, 0.0, 0.0, 0.0, 0.0, 0.0, 0.0, 0.0, 0.0, 0.0, 0.0, 0.0, 0.0, 0.0]
---
header: 
  seq: 59795
  stamp: 
    secs: 1782211605
    nsecs: 337139130
  frame_id: map
pose: 
  pose: 
    position: 
      x: -3.02031946182
      y: -0.150762304664
      z: 0.0
    orientation: 
      x: 0.0
      y: 0.0
      z: -0.702114449762
      w: 0.712064111886
  covariance: [0.0, 0.0, 0.0, 0.0, 0.0, 0.0, 0.0, 0.0, 0.0, 0.0, 0.0, 0.0, 0.0, 0.0, 0.0, 0.0, 0.0, 0.0, 0.0, 0.0, 0.0, 0.0, 0.0, 0.0, 0.0, 0.0, 0.0, 0.0, 0.0, 0.0, 0.0, 0.0, 0.0, 0.0, 0.0, 0.0]
---
header: 
  seq: 59796
  stamp: 
    secs: 1782211605
    nsecs: 372869492
  frame_id: map
pose: 
  pose: 
    position: 
      x: -3.02031946182
      y: -0.150762304664
      z: 0.0
    orientation: 
      x: 0.0
      y: 0.0
      z: -0.702114449762
      w: 0.712064111886
  covariance: [0.0, 0.0, 0.0, 0.0, 0.0, 0.0, 0.0, 0.0, 0.0, 0.0, 0.0, 0.0, 0.0, 0.0, 0.0, 0.0, 0.0, 0.0, 0.0, 0.0, 0.0, 0.0, 0.0, 0.0, 0.0, 0.0, 0.0, 0.0, 0.0, 0.0, 0.0, 0.0, 0.0, 0.0, 0.0, 0.0]
---
header: 
  seq: 59797
  stamp: 
    secs: 1782211605
    nsecs: 372869492
  frame_id: map
pose: 
  pose: 
    position: 
      x: -3.02031946182
      y: -0.150762304664
      z: 0.0
    orientation: 
      x: 0.0
      y: 0.0
      z: -0.702114449762
      w: 0.712064111886
  covariance: [0.0, 0.0, 0.0, 0.0, 0.0, 0.0, 0.0, 0.0, 0.0, 0.0, 0.0, 0.0, 0.0, 0.0, 0.0, 0.0, 0.0, 0.0, 0.0, 0.0, 0.0, 0.0, 0.0, 0.0, 0.0, 0.0, 0.0, 0.0, 0.0, 0.0, 0.0, 0.0, 0.0, 0.0, 0.0, 0.0]
---
header: 
  seq: 59798
  stamp: 
    secs: 1782211605
    nsecs: 408475399
  frame_id: map
pose: 
  pose: 
    position: 
      x: -3.02031946182
      y: -0.150762304664
      z: 0.0
    orientation: 
      x: 0.0
      y: 0.0
      z: -0.702114449762
      w: 0.712064111886
  covariance: [0.0, 0.0, 0.0, 0.0, 0.0, 0.0, 0.0, 0.0, 0.0, 0.0, 0.0, 0.0, 0.0, 0.0, 0.0, 0.0, 0.0, 0.0, 0.0, 0.0, 0.0, 0.0, 0.0, 0.0, 0.0, 0.0, 0.0, 0.0, 0.0, 0.0, 0.0, 0.0, 0.0, 0.0, 0.0, 0.0]
---
header: 
  seq: 59799
  stamp: 
    secs: 1782211605
    nsecs: 408475399
  frame_id: map
pose: 
  pose: 
    position: 
      x: -3.02031946182
      y: -0.150762304664
      z: 0.0
    orientation: 
      x: 0.0
      y: 0.0
      z: -0.702114449762
      w: 0.712064111886
  covariance: [0.0, 0.0, 0.0, 0.0, 0.0, 0.0, 0.0, 0.0, 0.0, 0.0, 0.0, 0.0, 0.0, 0.0, 0.0, 0.0, 0.0, 0.0, 0.0, 0.0, 0.0, 0.0, 0.0, 0.0, 0.0, 0.0, 0.0, 0.0, 0.0, 0.0, 0.0, 0.0, 0.0, 0.0, 0.0, 0.0]
---
header: 
  seq: 59800
  stamp: 
    secs: 1782211605
    nsecs: 444226265
  frame_id: map
pose: 
  pose: 
    position: 
      x: -3.02031946182
      y: -0.150762304664
      z: 0.0
    orientation: 
      x: 0.0
      y: 0.0
      z: -0.702114449762
      w: 0.712064111886
  covariance: [0.0, 0.0, 0.0, 0.0, 0.0, 0.0, 0.0, 0.0, 0.0, 0.0, 0.0, 0.0, 0.0, 0.0, 0.0, 0.0, 0.0, 0.0, 0.0, 0.0, 0.0, 0.0, 0.0, 0.0, 0.0, 0.0, 0.0, 0.0, 0.0, 0.0, 0.0, 0.0, 0.0, 0.0, 0.0, 0.0]
---
header: 
  seq: 59801
  stamp: 
    secs: 1782211605
    nsecs: 444226265
  frame_id: map
pose: 
  pose: 
    position: 
      x: -3.02031946182
      y: -0.150762304664
      z: 0.0
    orientation: 
      x: 0.0
      y: 0.0
      z: -0.702114449762
      w: 0.712064111886
  covariance: [0.0, 0.0, 0.0, 0.0, 0.0, 0.0, 0.0, 0.0, 0.0, 0.0, 0.0, 0.0, 0.0, 0.0, 0.0, 0.0, 0.0, 0.0, 0.0, 0.0, 0.0, 0.0, 0.0, 0.0, 0.0, 0.0, 0.0, 0.0, 0.0, 0.0, 0.0, 0.0, 0.0, 0.0, 0.0, 0.0]
---
header: 
  seq: 59802
  stamp: 
    secs: 1782211605
    nsecs: 479902267
  frame_id: map
pose: 
  pose: 
    position: 
      x: -3.02031946182
      y: -0.150762304664
      z: 0.0
    orientation: 
      x: 0.0
      y: 0.0
      z: -0.702114449762
      w: 0.712064111886
  covariance: [0.0, 0.0, 0.0, 0.0, 0.0, 0.0, 0.0, 0.0, 0.0, 0.0, 0.0, 0.0, 0.0, 0.0, 0.0, 0.0, 0.0, 0.0, 0.0, 0.0, 0.0, 0.0, 0.0, 0.0, 0.0, 0.0, 0.0, 0.0, 0.0, 0.0, 0.0, 0.0, 0.0, 0.0, 0.0, 0.0]
---
header: 
  seq: 59803
  stamp: 
    secs: 1782211605
    nsecs: 515270710
  frame_id: map
pose: 
  pose: 
    position: 
      x: -3.02031946182
      y: -0.150762304664
      z: 0.0
    orientation: 
      x: 0.0
      y: 0.0
      z: -0.702114449762
      w: 0.712064111886
  covariance: [0.0, 0.0, 0.0, 0.0, 0.0, 0.0, 0.0, 0.0, 0.0, 0.0, 0.0, 0.0, 0.0, 0.0, 0.0, 0.0, 0.0, 0.0, 0.0, 0.0, 0.0, 0.0, 0.0, 0.0, 0.0, 0.0, 0.0, 0.0, 0.0, 0.0, 0.0, 0.0, 0.0, 0.0, 0.0, 0.0]
---
header: 
  seq: 59804
  stamp: 
    secs: 1782211605
    nsecs: 550963402
  frame_id: map
pose: 
  pose: 
    position: 
      x: -3.02031946182
      y: -0.150762304664
      z: 0.0
    orientation: 
      x: 0.0
      y: 0.0
      z: -0.702114449762
      w: 0.712064111886
  covariance: [0.0, 0.0, 0.0, 0.0, 0.0, 0.0, 0.0, 0.0, 0.0, 0.0, 0.0, 0.0, 0.0, 0.0, 0.0, 0.0, 0.0, 0.0, 0.0, 0.0, 0.0, 0.0, 0.0, 0.0, 0.0, 0.0, 0.0, 0.0, 0.0, 0.0, 0.0, 0.0, 0.0, 0.0, 0.0, 0.0]
---
header: 
  seq: 59805
  stamp: 
    secs: 1782211605
    nsecs: 550963402
  frame_id: map
pose: 
  pose: 
    position: 
      x: -3.02031946182
      y: -0.150762304664
      z: 0.0
    orientation: 
      x: 0.0
      y: 0.0
      z: -0.702114449762
      w: 0.712064111886
  covariance: [0.0, 0.0, 0.0, 0.0, 0.0, 0.0, 0.0, 0.0, 0.0, 0.0, 0.0, 0.0, 0.0, 0.0, 0.0, 0.0, 0.0, 0.0, 0.0, 0.0, 0.0, 0.0, 0.0, 0.0, 0.0, 0.0, 0.0, 0.0, 0.0, 0.0, 0.0, 0.0, 0.0, 0.0, 0.0, 0.0]
---
header: 
  seq: 59806
  stamp: 
    secs: 1782211605
    nsecs: 586465120
  frame_id: map
pose: 
  pose: 
    position: 
      x: -3.02031946182
      y: -0.150762304664
      z: 0.0
    orientation: 
      x: 0.0
      y: 0.0
      z: -0.702114449762
      w: 0.712064111886
  covariance: [0.0, 0.0, 0.0, 0.0, 0.0, 0.0, 0.0, 0.0, 0.0, 0.0, 0.0, 0.0, 0.0, 0.0, 0.0, 0.0, 0.0, 0.0, 0.0, 0.0, 0.0, 0.0, 0.0, 0.0, 0.0, 0.0, 0.0, 0.0, 0.0, 0.0, 0.0, 0.0, 0.0, 0.0, 0.0, 0.0]
---
header: 
  seq: 59807
  stamp: 
    secs: 1782211605
    nsecs: 586465120
  frame_id: map
pose: 
  pose: 
    position: 
      x: -3.02031946182
      y: -0.150762304664
      z: 0.0
    orientation: 
      x: 0.0
      y: 0.0
      z: -0.702114449762
      w: 0.712064111886
  covariance: [0.0, 0.0, 0.0, 0.0, 0.0, 0.0, 0.0, 0.0, 0.0, 0.0, 0.0, 0.0, 0.0, 0.0, 0.0, 0.0, 0.0, 0.0, 0.0, 0.0, 0.0, 0.0, 0.0, 0.0, 0.0, 0.0, 0.0, 0.0, 0.0, 0.0, 0.0, 0.0, 0.0, 0.0, 0.0, 0.0]
---
header: 
  seq: 59808
  stamp: 
    secs: 1782211605
    nsecs: 622067451
  frame_id: map
pose: 
  pose: 
    position: 
      x: -3.02031946182
      y: -0.150762304664
      z: 0.0
    orientation: 
      x: 0.0
      y: 0.0
      z: -0.702114449762
      w: 0.712064111886
  covariance: [0.0, 0.0, 0.0, 0.0, 0.0, 0.0, 0.0, 0.0, 0.0, 0.0, 0.0, 0.0, 0.0, 0.0, 0.0, 0.0, 0.0, 0.0, 0.0, 0.0, 0.0, 0.0, 0.0, 0.0, 0.0, 0.0, 0.0, 0.0, 0.0, 0.0, 0.0, 0.0, 0.0, 0.0, 0.0, 0.0]
---
header: 
  seq: 59809
  stamp: 
    secs: 1782211605
    nsecs: 622067451
  frame_id: map
pose: 
  pose: 
    position: 
      x: -3.02031946182
      y: -0.150762304664
      z: 0.0
    orientation: 
      x: 0.0
      y: 0.0
      z: -0.702114449762
      w: 0.712064111886
  covariance: [0.0, 0.0, 0.0, 0.0, 0.0, 0.0, 0.0, 0.0, 0.0, 0.0, 0.0, 0.0, 0.0, 0.0, 0.0, 0.0, 0.0, 0.0, 0.0, 0.0, 0.0, 0.0, 0.0, 0.0, 0.0, 0.0, 0.0, 0.0, 0.0, 0.0, 0.0, 0.0, 0.0, 0.0, 0.0, 0.0]
---
header: 
  seq: 59810
  stamp: 
    secs: 1782211605
    nsecs: 657719135
  frame_id: map
pose: 
  pose: 
    position: 
      x: -3.02031946182
      y: -0.150762304664
      z: 0.0
    orientation: 
      x: 0.0
      y: 0.0
      z: -0.702114449762
      w: 0.712064111886
  covariance: [0.0, 0.0, 0.0, 0.0, 0.0, 0.0, 0.0, 0.0, 0.0, 0.0, 0.0, 0.0, 0.0, 0.0, 0.0, 0.0, 0.0, 0.0, 0.0, 0.0, 0.0, 0.0, 0.0, 0.0, 0.0, 0.0, 0.0, 0.0, 0.0, 0.0, 0.0, 0.0, 0.0, 0.0, 0.0, 0.0]
---
header: 
  seq: 59811
  stamp: 
    secs: 1782211605
    nsecs: 657719135
  frame_id: map
pose: 
  pose: 
    position: 
      x: -3.02031946182
      y: -0.150762304664
      z: 0.0
    orientation: 
      x: 0.0
      y: 0.0
      z: -0.702114449762
      w: 0.712064111886
  covariance: [0.0, 0.0, 0.0, 0.0, 0.0, 0.0, 0.0, 0.0, 0.0, 0.0, 0.0, 0.0, 0.0, 0.0, 0.0, 0.0, 0.0, 0.0, 0.0, 0.0, 0.0, 0.0, 0.0, 0.0, 0.0, 0.0, 0.0, 0.0, 0.0, 0.0, 0.0, 0.0, 0.0, 0.0, 0.0, 0.0]
---
header: 
  seq: 59812
  stamp: 
    secs: 1782211605
    nsecs: 693341017
  frame_id: map
pose: 
  pose: 
    position: 
      x: -3.02031946182
      y: -0.150762304664
      z: 0.0
    orientation: 
      x: 0.0
      y: 0.0
      z: -0.702114449762
      w: 0.712064111886
  covariance: [0.0, 0.0, 0.0, 0.0, 0.0, 0.0, 0.0, 0.0, 0.0, 0.0, 0.0, 0.0, 0.0, 0.0, 0.0, 0.0, 0.0, 0.0, 0.0, 0.0, 0.0, 0.0, 0.0, 0.0, 0.0, 0.0, 0.0, 0.0, 0.0, 0.0, 0.0, 0.0, 0.0, 0.0, 0.0, 0.0]
---
header: 
  seq: 59813
  stamp: 
    secs: 1782211605
    nsecs: 693341017
  frame_id: map
pose: 
  pose: 
    position: 
      x: -3.02031946182
      y: -0.150762304664
      z: 0.0
    orientation: 
      x: 0.0
      y: 0.0
      z: -0.702114449762
      w: 0.712064111886
  covariance: [0.0, 0.0, 0.0, 0.0, 0.0, 0.0, 0.0, 0.0, 0.0, 0.0, 0.0, 0.0, 0.0, 0.0, 0.0, 0.0, 0.0, 0.0, 0.0, 0.0, 0.0, 0.0, 0.0, 0.0, 0.0, 0.0, 0.0, 0.0, 0.0, 0.0, 0.0, 0.0, 0.0, 0.0, 0.0, 0.0]
---
header: 
  seq: 59814
  stamp: 
    secs: 1782211605
    nsecs: 728933811
  frame_id: map
pose: 
  pose: 
    position: 
      x: -3.02031946182
      y: -0.150762304664
      z: 0.0
    orientation: 
      x: 0.0
      y: 0.0
      z: -0.702114449762
      w: 0.712064111886
  covariance: [0.0, 0.0, 0.0, 0.0, 0.0, 0.0, 0.0, 0.0, 0.0, 0.0, 0.0, 0.0, 0.0, 0.0, 0.0, 0.0, 0.0, 0.0, 0.0, 0.0, 0.0, 0.0, 0.0, 0.0, 0.0, 0.0, 0.0, 0.0, 0.0, 0.0, 0.0, 0.0, 0.0, 0.0, 0.0, 0.0]
---
header: 
  seq: 59815
  stamp: 
    secs: 1782211605
    nsecs: 728933811
  frame_id: map
pose: 
  pose: 
    position: 
      x: -3.02031946182
      y: -0.150762304664
      z: 0.0
    orientation: 
      x: 0.0
      y: 0.0
      z: -0.702114449762
      w: 0.712064111886
  covariance: [0.0, 0.0, 0.0, 0.0, 0.0, 0.0, 0.0, 0.0, 0.0, 0.0, 0.0, 0.0, 0.0, 0.0, 0.0, 0.0, 0.0, 0.0, 0.0, 0.0, 0.0, 0.0, 0.0, 0.0, 0.0, 0.0, 0.0, 0.0, 0.0, 0.0, 0.0, 0.0, 0.0, 0.0, 0.0, 0.0]
---
header: 
  seq: 59816
  stamp: 
    secs: 1782211605
    nsecs: 764555454
  frame_id: map
pose: 
  pose: 
    position: 
      x: -3.02031946182
      y: -0.150762304664
      z: 0.0
    orientation: 
      x: 0.0
      y: 0.0
      z: -0.702114449762
      w: 0.712064111886
  covariance: [0.0, 0.0, 0.0, 0.0, 0.0, 0.0, 0.0, 0.0, 0.0, 0.0, 0.0, 0.0, 0.0, 0.0, 0.0, 0.0, 0.0, 0.0, 0.0, 0.0, 0.0, 0.0, 0.0, 0.0, 0.0, 0.0, 0.0, 0.0, 0.0, 0.0, 0.0, 0.0, 0.0, 0.0, 0.0, 0.0]
---
header: 
  seq: 59817
  stamp: 
    secs: 1782211605
    nsecs: 764555454
  frame_id: map
pose: 
  pose: 
    position: 
      x: -3.02031946182
      y: -0.150762304664
      z: 0.0
    orientation: 
      x: 0.0
      y: 0.0
      z: -0.702114449762
      w: 0.712064111886
  covariance: [0.0, 0.0, 0.0, 0.0, 0.0, 0.0, 0.0, 0.0, 0.0, 0.0, 0.0, 0.0, 0.0, 0.0, 0.0, 0.0, 0.0, 0.0, 0.0, 0.0, 0.0, 0.0, 0.0, 0.0, 0.0, 0.0, 0.0, 0.0, 0.0, 0.0, 0.0, 0.0, 0.0, 0.0, 0.0, 0.0]
---
header: 
  seq: 59818
  stamp: 
    secs: 1782211605
    nsecs: 800146103
  frame_id: map
pose: 
  pose: 
    position: 
      x: -3.02031946182
      y: -0.150762304664
      z: 0.0
    orientation: 
      x: 0.0
      y: 0.0
      z: -0.702114449762
      w: 0.712064111886
  covariance: [0.0, 0.0, 0.0, 0.0, 0.0, 0.0, 0.0, 0.0, 0.0, 0.0, 0.0, 0.0, 0.0, 0.0, 0.0, 0.0, 0.0, 0.0, 0.0, 0.0, 0.0, 0.0, 0.0, 0.0, 0.0, 0.0, 0.0, 0.0, 0.0, 0.0, 0.0, 0.0, 0.0, 0.0, 0.0, 0.0]
---
header: 
  seq: 59819
  stamp: 
    secs: 1782211605
    nsecs: 800146103
  frame_id: map
pose: 
  pose: 
    position: 
      x: -3.02031946182
      y: -0.150762304664
      z: 0.0
    orientation: 
      x: 0.0
      y: 0.0
      z: -0.702114449762
      w: 0.712064111886
  covariance: [0.0, 0.0, 0.0, 0.0, 0.0, 0.0, 0.0, 0.0, 0.0, 0.0, 0.0, 0.0, 0.0, 0.0, 0.0, 0.0, 0.0, 0.0, 0.0, 0.0, 0.0, 0.0, 0.0, 0.0, 0.0, 0.0, 0.0, 0.0, 0.0, 0.0, 0.0, 0.0, 0.0, 0.0, 0.0, 0.0]
---
header: 
  seq: 59820
  stamp: 
    secs: 1782211605
    nsecs: 835804701
  frame_id: map
pose: 
  pose: 
    position: 
      x: -3.02031946182
      y: -0.150762304664
      z: 0.0
    orientation: 
      x: 0.0
      y: 0.0
      z: -0.702114449762
      w: 0.712064111886
  covariance: [0.0, 0.0, 0.0, 0.0, 0.0, 0.0, 0.0, 0.0, 0.0, 0.0, 0.0, 0.0, 0.0, 0.0, 0.0, 0.0, 0.0, 0.0, 0.0, 0.0, 0.0, 0.0, 0.0, 0.0, 0.0, 0.0, 0.0, 0.0, 0.0, 0.0, 0.0, 0.0, 0.0, 0.0, 0.0, 0.0]
---
header: 
  seq: 59821
  stamp: 
    secs: 1782211605
    nsecs: 835804701
  frame_id: map
pose: 
  pose: 
    position: 
      x: -3.02031946182
      y: -0.150762304664
      z: 0.0
    orientation: 
      x: 0.0
      y: 0.0
      z: -0.702114449762
      w: 0.712064111886
  covariance: [0.0, 0.0, 0.0, 0.0, 0.0, 0.0, 0.0, 0.0, 0.0, 0.0, 0.0, 0.0, 0.0, 0.0, 0.0, 0.0, 0.0, 0.0, 0.0, 0.0, 0.0, 0.0, 0.0, 0.0, 0.0, 0.0, 0.0, 0.0, 0.0, 0.0, 0.0, 0.0, 0.0, 0.0, 0.0, 0.0]
---
header: 
  seq: 59822
  stamp: 
    secs: 1782211605
    nsecs: 871822834
  frame_id: map
pose: 
  pose: 
    position: 
      x: -3.02031946182
      y: -0.150762304664
      z: 0.0
    orientation: 
      x: 0.0
      y: 0.0
      z: -0.702114449762
      w: 0.712064111886
  covariance: [0.0, 0.0, 0.0, 0.0, 0.0, 0.0, 0.0, 0.0, 0.0, 0.0, 0.0, 0.0, 0.0, 0.0, 0.0, 0.0, 0.0, 0.0, 0.0, 0.0, 0.0, 0.0, 0.0, 0.0, 0.0, 0.0, 0.0, 0.0, 0.0, 0.0, 0.0, 0.0, 0.0, 0.0, 0.0, 0.0]
---
header: 
  seq: 59823
  stamp: 
    secs: 1782211605
    nsecs: 871822834
  frame_id: map
pose: 
  pose: 
    position: 
      x: -3.02031946182
      y: -0.150762304664
      z: 0.0
    orientation: 
      x: 0.0
      y: 0.0
      z: -0.702114449762
      w: 0.712064111886
  covariance: [0.0, 0.0, 0.0, 0.0, 0.0, 0.0, 0.0, 0.0, 0.0, 0.0, 0.0, 0.0, 0.0, 0.0, 0.0, 0.0, 0.0, 0.0, 0.0, 0.0, 0.0, 0.0, 0.0, 0.0, 0.0, 0.0, 0.0, 0.0, 0.0, 0.0, 0.0, 0.0, 0.0, 0.0, 0.0, 0.0]
---
header: 
  seq: 59824
  stamp: 
    secs: 1782211605
    nsecs: 942689896
  frame_id: map
pose: 
  pose: 
    position: 
      x: -3.0203172518
      y: -0.150912102619
      z: 0.0
    orientation: 
      x: 0.0
      y: 0.0
      z: -0.702082081173
      w: 0.712096026738
  covariance: [0.0, 0.0, 0.0, 0.0, 0.0, 0.0, 0.0, 0.0, 0.0, 0.0, 0.0, 0.0, 0.0, 0.0, 0.0, 0.0, 0.0, 0.0, 0.0, 0.0, 0.0, 0.0, 0.0, 0.0, 0.0, 0.0, 0.0, 0.0, 0.0, 0.0, 0.0, 0.0, 0.0, 0.0, 0.0, 0.0]
---
header: 
  seq: 59825
  stamp: 
    secs: 1782211605
    nsecs: 907026291
  frame_id: map
pose: 
  pose: 
    position: 
      x: -3.02031946182
      y: -0.150762304664
      z: 0.0
    orientation: 
      x: 0.0
      y: 0.0
      z: -0.702114449762
      w: 0.712064111886
  covariance: [0.0, 0.0, 0.0, 0.0, 0.0, 0.0, 0.0, 0.0, 0.0, 0.0, 0.0, 0.0, 0.0, 0.0, 0.0, 0.0, 0.0, 0.0, 0.0, 0.0, 0.0, 0.0, 0.0, 0.0, 0.0, 0.0, 0.0, 0.0, 0.0, 0.0, 0.0, 0.0, 0.0, 0.0, 0.0, 0.0]
---
header: 
  seq: 59826
  stamp: 
    secs: 1782211605
    nsecs: 978306770
  frame_id: map
pose: 
  pose: 
    position: 
      x: -3.02031469345
      y: -0.15108551085
      z: 0.0
    orientation: 
      x: 0.0
      y: 0.0
      z: -0.702067040125
      w: 0.712110855956
  covariance: [0.0, 0.0, 0.0, 0.0, 0.0, 0.0, 0.0, 0.0, 0.0, 0.0, 0.0, 0.0, 0.0, 0.0, 0.0, 0.0, 0.0, 0.0, 0.0, 0.0, 0.0, 0.0, 0.0, 0.0, 0.0, 0.0, 0.0, 0.0, 0.0, 0.0, 0.0, 0.0, 0.0, 0.0, 0.0, 0.0]
---
header: 
  seq: 59827
  stamp: 
    secs: 1782211605
    nsecs: 978306770
  frame_id: map
pose: 
  pose: 
    position: 
      x: -3.02031469345
      y: -0.15108551085
      z: 0.0
    orientation: 
      x: 0.0
      y: 0.0
      z: -0.702067040125
      w: 0.712110855956
  covariance: [0.0, 0.0, 0.0, 0.0, 0.0, 0.0, 0.0, 0.0, 0.0, 0.0, 0.0, 0.0, 0.0, 0.0, 0.0, 0.0, 0.0, 0.0, 0.0, 0.0, 0.0, 0.0, 0.0, 0.0, 0.0, 0.0, 0.0, 0.0, 0.0, 0.0, 0.0, 0.0, 0.0, 0.0, 0.0, 0.0]
---
header: 
  seq: 59828
  stamp: 
    secs: 1782211606
    nsecs:  13878345
  frame_id: map
pose: 
  pose: 
    position: 
      x: -3.02031454695
      y: -0.151095440722
      z: 0.0
    orientation: 
      x: 0.0
      y: 0.0
      z: -0.702071617299
      w: 0.71210634331
  covariance: [0.0, 0.0, 0.0, 0.0, 0.0, 0.0, 0.0, 0.0, 0.0, 0.0, 0.0, 0.0, 0.0, 0.0, 0.0, 0.0, 0.0, 0.0, 0.0, 0.0, 0.0, 0.0, 0.0, 0.0, 0.0, 0.0, 0.0, 0.0, 0.0, 0.0, 0.0, 0.0, 0.0, 0.0, 0.0, 0.0]
---
header: 
  seq: 59829
  stamp: 
    secs: 1782211606
    nsecs:  49537182
  frame_id: map
pose: 
  pose: 
    position: 
      x: -3.02031373978
      y: -0.151150152087
      z: 0.0
    orientation: 
      x: 0.0
      y: 0.0
      z: -0.702127794458
      w: 0.712050953409
  covariance: [0.0, 0.0, 0.0, 0.0, 0.0, 0.0, 0.0, 0.0, 0.0, 0.0, 0.0, 0.0, 0.0, 0.0, 0.0, 0.0, 0.0, 0.0, 0.0, 0.0, 0.0, 0.0, 0.0, 0.0, 0.0, 0.0, 0.0, 0.0, 0.0, 0.0, 0.0, 0.0, 0.0, 0.0, 0.0, 0.0]
---
header: 
  seq: 59830
  stamp: 
    secs: 1782211606
    nsecs:  49537182
  frame_id: map
pose: 
  pose: 
    position: 
      x: -3.02031373978
      y: -0.151150152087
      z: 0.0
    orientation: 
      x: 0.0
      y: 0.0
      z: -0.702127794458
      w: 0.712050953409
  covariance: [0.0, 0.0, 0.0, 0.0, 0.0, 0.0, 0.0, 0.0, 0.0, 0.0, 0.0, 0.0, 0.0, 0.0, 0.0, 0.0, 0.0, 0.0, 0.0, 0.0, 0.0, 0.0, 0.0, 0.0, 0.0, 0.0, 0.0, 0.0, 0.0, 0.0, 0.0, 0.0, 0.0, 0.0, 0.0, 0.0]
---
header: 
  seq: 59831
  stamp: 
    secs: 1782211606
    nsecs:  85091829
  frame_id: map
pose: 
  pose: 
    position: 
      x: -3.02031373978
      y: -0.151150152087
      z: 0.0
    orientation: 
      x: 0.0
      y: 0.0
      z: -0.702130025928
      w: 0.712048753029
  covariance: [0.0, 0.0, 0.0, 0.0, 0.0, 0.0, 0.0, 0.0, 0.0, 0.0, 0.0, 0.0, 0.0, 0.0, 0.0, 0.0, 0.0, 0.0, 0.0, 0.0, 0.0, 0.0, 0.0, 0.0, 0.0, 0.0, 0.0, 0.0, 0.0, 0.0, 0.0, 0.0, 0.0, 0.0, 0.0, 0.0]
---
header: 
  seq: 59832
  stamp: 
    secs: 1782211606
    nsecs:  85091829
  frame_id: map
pose: 
  pose: 
    position: 
      x: -3.02031373978
      y: -0.151150152087
      z: 0.0
    orientation: 
      x: 0.0
      y: 0.0
      z: -0.702130025928
      w: 0.712048753029
  covariance: [0.0, 0.0, 0.0, 0.0, 0.0, 0.0, 0.0, 0.0, 0.0, 0.0, 0.0, 0.0, 0.0, 0.0, 0.0, 0.0, 0.0, 0.0, 0.0, 0.0, 0.0, 0.0, 0.0, 0.0, 0.0, 0.0, 0.0, 0.0, 0.0, 0.0, 0.0, 0.0, 0.0, 0.0, 0.0, 0.0]
---
header: 
  seq: 59833
  stamp: 
    secs: 1782211606
    nsecs: 120721817
  frame_id: map
pose: 
  pose: 
    position: 
      x: -3.02031373978
      y: -0.151150152087
      z: 0.0
    orientation: 
      x: 0.0
      y: 0.0
      z: -0.702130025928
      w: 0.712048753029
  covariance: [0.0, 0.0, 0.0, 0.0, 0.0, 0.0, 0.0, 0.0, 0.0, 0.0, 0.0, 0.0, 0.0, 0.0, 0.0, 0.0, 0.0, 0.0, 0.0, 0.0, 0.0, 0.0, 0.0, 0.0, 0.0, 0.0, 0.0, 0.0, 0.0, 0.0, 0.0, 0.0, 0.0, 0.0, 0.0, 0.0]
---
header: 
  seq: 59834
  stamp: 
    secs: 1782211606
    nsecs: 120721817
  frame_id: map
pose: 
  pose: 
    position: 
      x: -3.02031373978
      y: -0.151150152087
      z: 0.0
    orientation: 
      x: 0.0
      y: 0.0
      z: -0.702130025928
      w: 0.712048753029
  covariance: [0.0, 0.0, 0.0, 0.0, 0.0, 0.0, 0.0, 0.0, 0.0, 0.0, 0.0, 0.0, 0.0, 0.0, 0.0, 0.0, 0.0, 0.0, 0.0, 0.0, 0.0, 0.0, 0.0, 0.0, 0.0, 0.0, 0.0, 0.0, 0.0, 0.0, 0.0, 0.0, 0.0, 0.0, 0.0, 0.0]
---
header: 
  seq: 59835
  stamp: 
    secs: 1782211606
    nsecs: 156336784
  frame_id: map
pose: 
  pose: 
    position: 
      x: -3.02031373978
      y: -0.151150152087
      z: 0.0
    orientation: 
      x: 0.0
      y: 0.0
      z: -0.702130025928
      w: 0.712048753029
  covariance: [0.0, 0.0, 0.0, 0.0, 0.0, 0.0, 0.0, 0.0, 0.0, 0.0, 0.0, 0.0, 0.0, 0.0, 0.0, 0.0, 0.0, 0.0, 0.0, 0.0, 0.0, 0.0, 0.0, 0.0, 0.0, 0.0, 0.0, 0.0, 0.0, 0.0, 0.0, 0.0, 0.0, 0.0, 0.0, 0.0]
---
header: 
  seq: 59836
  stamp: 
    secs: 1782211606
    nsecs: 156336784
  frame_id: map
pose: 
  pose: 
    position: 
      x: -3.02031373978
      y: -0.151150152087
      z: 0.0
    orientation: 
      x: 0.0
      y: 0.0
      z: -0.702130025928
      w: 0.712048753029
  covariance: [0.0, 0.0, 0.0, 0.0, 0.0, 0.0, 0.0, 0.0, 0.0, 0.0, 0.0, 0.0, 0.0, 0.0, 0.0, 0.0, 0.0, 0.0, 0.0, 0.0, 0.0, 0.0, 0.0, 0.0, 0.0, 0.0, 0.0, 0.0, 0.0, 0.0, 0.0, 0.0, 0.0, 0.0, 0.0, 0.0]
---
header: 
  seq: 59837
  stamp: 
    secs: 1782211606
    nsecs: 191958427
  frame_id: map
pose: 
  pose: 
    position: 
      x: -3.02031373978
      y: -0.151150152087
      z: 0.0
    orientation: 
      x: 0.0
      y: 0.0
      z: -0.702130025928
      w: 0.712048753029
  covariance: [0.0, 0.0, 0.0, 0.0, 0.0, 0.0, 0.0, 0.0, 0.0, 0.0, 0.0, 0.0, 0.0, 0.0, 0.0, 0.0, 0.0, 0.0, 0.0, 0.0, 0.0, 0.0, 0.0, 0.0, 0.0, 0.0, 0.0, 0.0, 0.0, 0.0, 0.0, 0.0, 0.0, 0.0, 0.0, 0.0]
---
header: 
  seq: 59838
  stamp: 
    secs: 1782211606
    nsecs: 191958427
  frame_id: map
pose: 
  pose: 
    position: 
      x: -3.02031373978
      y: -0.151150152087
      z: 0.0
    orientation: 
      x: 0.0
      y: 0.0
      z: -0.702130025928
      w: 0.712048753029
  covariance: [0.0, 0.0, 0.0, 0.0, 0.0, 0.0, 0.0, 0.0, 0.0, 0.0, 0.0, 0.0, 0.0, 0.0, 0.0, 0.0, 0.0, 0.0, 0.0, 0.0, 0.0, 0.0, 0.0, 0.0, 0.0, 0.0, 0.0, 0.0, 0.0, 0.0, 0.0, 0.0, 0.0, 0.0, 0.0, 0.0]
---
header: 
  seq: 59839
  stamp: 
    secs: 1782211606
    nsecs: 227546453
  frame_id: map
pose: 
  pose: 
    position: 
      x: -3.02031373978
      y: -0.151150152087
      z: 0.0
    orientation: 
      x: 0.0
      y: 0.0
      z: -0.702130025928
      w: 0.712048753029
  covariance: [0.0, 0.0, 0.0, 0.0, 0.0, 0.0, 0.0, 0.0, 0.0, 0.0, 0.0, 0.0, 0.0, 0.0, 0.0, 0.0, 0.0, 0.0, 0.0, 0.0, 0.0, 0.0, 0.0, 0.0, 0.0, 0.0, 0.0, 0.0, 0.0, 0.0, 0.0, 0.0, 0.0, 0.0, 0.0, 0.0]
---
header: 
  seq: 59840
  stamp: 
    secs: 1782211606
    nsecs: 227546453
  frame_id: map
pose: 
  pose: 
    position: 
      x: -3.02031373978
      y: -0.151150152087
      z: 0.0
    orientation: 
      x: 0.0
      y: 0.0
      z: -0.702130025928
      w: 0.712048753029
  covariance: [0.0, 0.0, 0.0, 0.0, 0.0, 0.0, 0.0, 0.0, 0.0, 0.0, 0.0, 0.0, 0.0, 0.0, 0.0, 0.0, 0.0, 0.0, 0.0, 0.0, 0.0, 0.0, 0.0, 0.0, 0.0, 0.0, 0.0, 0.0, 0.0, 0.0, 0.0, 0.0, 0.0, 0.0, 0.0, 0.0]
---
header: 
  seq: 59841
  stamp: 
    secs: 1782211606
    nsecs: 263241291
  frame_id: map
pose: 
  pose: 
    position: 
      x: -3.02031373978
      y: -0.151150152087
      z: 0.0
    orientation: 
      x: 0.0
      y: 0.0
      z: -0.702130025928
      w: 0.712048753029
  covariance: [0.0, 0.0, 0.0, 0.0, 0.0, 0.0, 0.0, 0.0, 0.0, 0.0, 0.0, 0.0, 0.0, 0.0, 0.0, 0.0, 0.0, 0.0, 0.0, 0.0, 0.0, 0.0, 0.0, 0.0, 0.0, 0.0, 0.0, 0.0, 0.0, 0.0, 0.0, 0.0, 0.0, 0.0, 0.0, 0.0]
---
header: 
  seq: 59842
  stamp: 
    secs: 1782211606
    nsecs: 263241291
  frame_id: map
pose: 
  pose: 
    position: 
      x: -3.02031373978
      y: -0.151150152087
      z: 0.0
    orientation: 
      x: 0.0
      y: 0.0
      z: -0.702130025928
      w: 0.712048753029
  covariance: [0.0, 0.0, 0.0, 0.0, 0.0, 0.0, 0.0, 0.0, 0.0, 0.0, 0.0, 0.0, 0.0, 0.0, 0.0, 0.0, 0.0, 0.0, 0.0, 0.0, 0.0, 0.0, 0.0, 0.0, 0.0, 0.0, 0.0, 0.0, 0.0, 0.0, 0.0, 0.0, 0.0, 0.0, 0.0, 0.0]
---
header: 
  seq: 59843
  stamp: 
    secs: 1782211606
    nsecs: 298822403
  frame_id: map
pose: 
  pose: 
    position: 
      x: -3.02031373978
      y: -0.151150152087
      z: 0.0
    orientation: 
      x: 0.0
      y: 0.0
      z: -0.702130025928
      w: 0.712048753029
  covariance: [0.0, 0.0, 0.0, 0.0, 0.0, 0.0, 0.0, 0.0, 0.0, 0.0, 0.0, 0.0, 0.0, 0.0, 0.0, 0.0, 0.0, 0.0, 0.0, 0.0, 0.0, 0.0, 0.0, 0.0, 0.0, 0.0, 0.0, 0.0, 0.0, 0.0, 0.0, 0.0, 0.0, 0.0, 0.0, 0.0]
---
header: 
  seq: 59844
  stamp: 
    secs: 1782211606
    nsecs: 298822403
  frame_id: map
pose: 
  pose: 
    position: 
      x: -3.02031373978
      y: -0.151150152087
      z: 0.0
    orientation: 
      x: 0.0
      y: 0.0
      z: -0.702130025928
      w: 0.712048753029
  covariance: [0.0, 0.0, 0.0, 0.0, 0.0, 0.0, 0.0, 0.0, 0.0, 0.0, 0.0, 0.0, 0.0, 0.0, 0.0, 0.0, 0.0, 0.0, 0.0, 0.0, 0.0, 0.0, 0.0, 0.0, 0.0, 0.0, 0.0, 0.0, 0.0, 0.0, 0.0, 0.0, 0.0, 0.0, 0.0, 0.0]
---
header: 
  seq: 59845
  stamp: 
    secs: 1782211606
    nsecs: 334640980
  frame_id: map
pose: 
  pose: 
    position: 
      x: -3.02031373978
      y: -0.151150152087
      z: 0.0
    orientation: 
      x: 0.0
      y: 0.0
      z: -0.702130025928
      w: 0.712048753029
  covariance: [0.0, 0.0, 0.0, 0.0, 0.0, 0.0, 0.0, 0.0, 0.0, 0.0, 0.0, 0.0, 0.0, 0.0, 0.0, 0.0, 0.0, 0.0, 0.0, 0.0, 0.0, 0.0, 0.0, 0.0, 0.0, 0.0, 0.0, 0.0, 0.0, 0.0, 0.0, 0.0, 0.0, 0.0, 0.0, 0.0]
---
header: 
  seq: 59846
  stamp: 
    secs: 1782211606
    nsecs: 370089054
  frame_id: map
pose: 
  pose: 
    position: 
      x: -3.02031373978
      y: -0.151150152087
      z: 0.0
    orientation: 
      x: 0.0
      y: 0.0
      z: -0.702130025928
      w: 0.712048753029
  covariance: [0.0, 0.0, 0.0, 0.0, 0.0, 0.0, 0.0, 0.0, 0.0, 0.0, 0.0, 0.0, 0.0, 0.0, 0.0, 0.0, 0.0, 0.0, 0.0, 0.0, 0.0, 0.0, 0.0, 0.0, 0.0, 0.0, 0.0, 0.0, 0.0, 0.0, 0.0, 0.0, 0.0, 0.0, 0.0, 0.0]
---
header: 
  seq: 59847
  stamp: 
    secs: 1782211606
    nsecs: 370089054
  frame_id: map
pose: 
  pose: 
    position: 
      x: -3.02031373978
      y: -0.151150152087
      z: 0.0
    orientation: 
      x: 0.0
      y: 0.0
      z: -0.702130025928
      w: 0.712048753029
  covariance: [0.0, 0.0, 0.0, 0.0, 0.0, 0.0, 0.0, 0.0, 0.0, 0.0, 0.0, 0.0, 0.0, 0.0, 0.0, 0.0, 0.0, 0.0, 0.0, 0.0, 0.0, 0.0, 0.0, 0.0, 0.0, 0.0, 0.0, 0.0, 0.0, 0.0, 0.0, 0.0, 0.0, 0.0, 0.0, 0.0]
---
header: 
  seq: 59848
  stamp: 
    secs: 1782211606
    nsecs: 405675888
  frame_id: map
pose: 
  pose: 
    position: 
      x: -3.02031373978
      y: -0.151150152087
      z: 0.0
    orientation: 
      x: 0.0
      y: 0.0
      z: -0.702130025928
      w: 0.712048753029
  covariance: [0.0, 0.0, 0.0, 0.0, 0.0, 0.0, 0.0, 0.0, 0.0, 0.0, 0.0, 0.0, 0.0, 0.0, 0.0, 0.0, 0.0, 0.0, 0.0, 0.0, 0.0, 0.0, 0.0, 0.0, 0.0, 0.0, 0.0, 0.0, 0.0, 0.0, 0.0, 0.0, 0.0, 0.0, 0.0, 0.0]
---
header: 
  seq: 59849
  stamp: 
    secs: 1782211606
    nsecs: 441267967
  frame_id: map
pose: 
  pose: 
    position: 
      x: -3.02031373978
      y: -0.151150152087
      z: 0.0
    orientation: 
      x: 0.0
      y: 0.0
      z: -0.702130025928
      w: 0.712048753029
  covariance: [0.0, 0.0, 0.0, 0.0, 0.0, 0.0, 0.0, 0.0, 0.0, 0.0, 0.0, 0.0, 0.0, 0.0, 0.0, 0.0, 0.0, 0.0, 0.0, 0.0, 0.0, 0.0, 0.0, 0.0, 0.0, 0.0, 0.0, 0.0, 0.0, 0.0, 0.0, 0.0, 0.0, 0.0, 0.0, 0.0]
---
header: 
  seq: 59850
  stamp: 
    secs: 1782211606
    nsecs: 441267967
  frame_id: map
pose: 
  pose: 
    position: 
      x: -3.02031373978
      y: -0.151150152087
      z: 0.0
    orientation: 
      x: 0.0
      y: 0.0
      z: -0.702130025928
      w: 0.712048753029
  covariance: [0.0, 0.0, 0.0, 0.0, 0.0, 0.0, 0.0, 0.0, 0.0, 0.0, 0.0, 0.0, 0.0, 0.0, 0.0, 0.0, 0.0, 0.0, 0.0, 0.0, 0.0, 0.0, 0.0, 0.0, 0.0, 0.0, 0.0, 0.0, 0.0, 0.0, 0.0, 0.0, 0.0, 0.0, 0.0, 0.0]
---
header: 
  seq: 59851
  stamp: 
    secs: 1782211606
    nsecs: 476880074
  frame_id: map
pose: 
  pose: 
    position: 
      x: -3.02031373978
      y: -0.151150152087
      z: 0.0
    orientation: 
      x: 0.0
      y: 0.0
      z: -0.702130025928
      w: 0.712048753029
  covariance: [0.0, 0.0, 0.0, 0.0, 0.0, 0.0, 0.0, 0.0, 0.0, 0.0, 0.0, 0.0, 0.0, 0.0, 0.0, 0.0, 0.0, 0.0, 0.0, 0.0, 0.0, 0.0, 0.0, 0.0, 0.0, 0.0, 0.0, 0.0, 0.0, 0.0, 0.0, 0.0, 0.0, 0.0, 0.0, 0.0]
---
header: 
  seq: 59852
  stamp: 
    secs: 1782211606
    nsecs: 476880074
  frame_id: map
pose: 
  pose: 
    position: 
      x: -3.02031373978
      y: -0.151150152087
      z: 0.0
    orientation: 
      x: 0.0
      y: 0.0
      z: -0.702130025928
      w: 0.712048753029
  covariance: [0.0, 0.0, 0.0, 0.0, 0.0, 0.0, 0.0, 0.0, 0.0, 0.0, 0.0, 0.0, 0.0, 0.0, 0.0, 0.0, 0.0, 0.0, 0.0, 0.0, 0.0, 0.0, 0.0, 0.0, 0.0, 0.0, 0.0, 0.0, 0.0, 0.0, 0.0, 0.0, 0.0, 0.0, 0.0, 0.0]
---
header: 
  seq: 59853
  stamp: 
    secs: 1782211606
    nsecs: 512509346
  frame_id: map
pose: 
  pose: 
    position: 
      x: -3.02031373978
      y: -0.151150152087
      z: 0.0
    orientation: 
      x: 0.0
      y: 0.0
      z: -0.702130025928
      w: 0.712048753029
  covariance: [0.0, 0.0, 0.0, 0.0, 0.0, 0.0, 0.0, 0.0, 0.0, 0.0, 0.0, 0.0, 0.0, 0.0, 0.0, 0.0, 0.0, 0.0, 0.0, 0.0, 0.0, 0.0, 0.0, 0.0, 0.0, 0.0, 0.0, 0.0, 0.0, 0.0, 0.0, 0.0, 0.0, 0.0, 0.0, 0.0]
---
header: 
  seq: 59854
  stamp: 
    secs: 1782211606
    nsecs: 512509346
  frame_id: map
pose: 
  pose: 
    position: 
      x: -3.02031373978
      y: -0.151150152087
      z: 0.0
    orientation: 
      x: 0.0
      y: 0.0
      z: -0.702130025928
      w: 0.712048753029
  covariance: [0.0, 0.0, 0.0, 0.0, 0.0, 0.0, 0.0, 0.0, 0.0, 0.0, 0.0, 0.0, 0.0, 0.0, 0.0, 0.0, 0.0, 0.0, 0.0, 0.0, 0.0, 0.0, 0.0, 0.0, 0.0, 0.0, 0.0, 0.0, 0.0, 0.0, 0.0, 0.0, 0.0, 0.0, 0.0, 0.0]
---
header: 
  seq: 59855
  stamp: 
    secs: 1782211606
    nsecs: 548096180
  frame_id: map
pose: 
  pose: 
    position: 
      x: -3.02031373978
      y: -0.151150152087
      z: 0.0
    orientation: 
      x: 0.0
      y: 0.0
      z: -0.702130025928
      w: 0.712048753029
  covariance: [0.0, 0.0, 0.0, 0.0, 0.0, 0.0, 0.0, 0.0, 0.0, 0.0, 0.0, 0.0, 0.0, 0.0, 0.0, 0.0, 0.0, 0.0, 0.0, 0.0, 0.0, 0.0, 0.0, 0.0, 0.0, 0.0, 0.0, 0.0, 0.0, 0.0, 0.0, 0.0, 0.0, 0.0, 0.0, 0.0]
---
header: 
  seq: 59856
  stamp: 
    secs: 1782211606
    nsecs: 548096180
  frame_id: map
pose: 
  pose: 
    position: 
      x: -3.02031373978
      y: -0.151150152087
      z: 0.0
    orientation: 
      x: 0.0
      y: 0.0
      z: -0.702130025928
      w: 0.712048753029
  covariance: [0.0, 0.0, 0.0, 0.0, 0.0, 0.0, 0.0, 0.0, 0.0, 0.0, 0.0, 0.0, 0.0, 0.0, 0.0, 0.0, 0.0, 0.0, 0.0, 0.0, 0.0, 0.0, 0.0, 0.0, 0.0, 0.0, 0.0, 0.0, 0.0, 0.0, 0.0, 0.0, 0.0, 0.0, 0.0, 0.0]
---
header: 
  seq: 59857
  stamp: 
    secs: 1782211606
    nsecs: 583737135
  frame_id: map
pose: 
  pose: 
    position: 
      x: -3.02031373978
      y: -0.151150152087
      z: 0.0
    orientation: 
      x: 0.0
      y: 0.0
      z: -0.702130025928
      w: 0.712048753029
  covariance: [0.0, 0.0, 0.0, 0.0, 0.0, 0.0, 0.0, 0.0, 0.0, 0.0, 0.0, 0.0, 0.0, 0.0, 0.0, 0.0, 0.0, 0.0, 0.0, 0.0, 0.0, 0.0, 0.0, 0.0, 0.0, 0.0, 0.0, 0.0, 0.0, 0.0, 0.0, 0.0, 0.0, 0.0, 0.0, 0.0]
---
header: 
  seq: 59858
  stamp: 
    secs: 1782211606
    nsecs: 583737135
  frame_id: map
pose: 
  pose: 
    position: 
      x: -3.02031373978
      y: -0.151150152087
      z: 0.0
    orientation: 
      x: 0.0
      y: 0.0
      z: -0.702130025928
      w: 0.712048753029
  covariance: [0.0, 0.0, 0.0, 0.0, 0.0, 0.0, 0.0, 0.0, 0.0, 0.0, 0.0, 0.0, 0.0, 0.0, 0.0, 0.0, 0.0, 0.0, 0.0, 0.0, 0.0, 0.0, 0.0, 0.0, 0.0, 0.0, 0.0, 0.0, 0.0, 0.0, 0.0, 0.0, 0.0, 0.0, 0.0, 0.0]
---
header: 
  seq: 59859
  stamp: 
    secs: 1782211606
    nsecs: 619349480
  frame_id: map
pose: 
  pose: 
    position: 
      x: -3.02031373978
      y: -0.151150152087
      z: 0.0
    orientation: 
      x: 0.0
      y: 0.0
      z: -0.702130025928
      w: 0.712048753029
  covariance: [0.0, 0.0, 0.0, 0.0, 0.0, 0.0, 0.0, 0.0, 0.0, 0.0, 0.0, 0.0, 0.0, 0.0, 0.0, 0.0, 0.0, 0.0, 0.0, 0.0, 0.0, 0.0, 0.0, 0.0, 0.0, 0.0, 0.0, 0.0, 0.0, 0.0, 0.0, 0.0, 0.0, 0.0, 0.0, 0.0]
---
header: 
  seq: 59860
  stamp: 
    secs: 1782211606
    nsecs: 619349480
  frame_id: map
pose: 
  pose: 
    position: 
      x: -3.02031373978
      y: -0.151150152087
      z: 0.0
    orientation: 
      x: 0.0
      y: 0.0
      z: -0.702130025928
      w: 0.712048753029
  covariance: [0.0, 0.0, 0.0, 0.0, 0.0, 0.0, 0.0, 0.0, 0.0, 0.0, 0.0, 0.0, 0.0, 0.0, 0.0, 0.0, 0.0, 0.0, 0.0, 0.0, 0.0, 0.0, 0.0, 0.0, 0.0, 0.0, 0.0, 0.0, 0.0, 0.0, 0.0, 0.0, 0.0, 0.0, 0.0, 0.0]
---
header: 
  seq: 59861
  stamp: 
    secs: 1782211606
    nsecs: 654953480
  frame_id: map
pose: 
  pose: 
    position: 
      x: -3.02031373978
      y: -0.151150152087
      z: 0.0
    orientation: 
      x: 0.0
      y: 0.0
      z: -0.702130025928
      w: 0.712048753029
  covariance: [0.0, 0.0, 0.0, 0.0, 0.0, 0.0, 0.0, 0.0, 0.0, 0.0, 0.0, 0.0, 0.0, 0.0, 0.0, 0.0, 0.0, 0.0, 0.0, 0.0, 0.0, 0.0, 0.0, 0.0, 0.0, 0.0, 0.0, 0.0, 0.0, 0.0, 0.0, 0.0, 0.0, 0.0, 0.0, 0.0]
---
header: 
  seq: 59862
  stamp: 
    secs: 1782211606
    nsecs: 654953480
  frame_id: map
pose: 
  pose: 
    position: 
      x: -3.02031373978
      y: -0.151150152087
      z: 0.0
    orientation: 
      x: 0.0
      y: 0.0
      z: -0.702130025928
      w: 0.712048753029
  covariance: [0.0, 0.0, 0.0, 0.0, 0.0, 0.0, 0.0, 0.0, 0.0, 0.0, 0.0, 0.0, 0.0, 0.0, 0.0, 0.0, 0.0, 0.0, 0.0, 0.0, 0.0, 0.0, 0.0, 0.0, 0.0, 0.0, 0.0, 0.0, 0.0, 0.0, 0.0, 0.0, 0.0, 0.0, 0.0, 0.0]
---
header: 
  seq: 59863
  stamp: 
    secs: 1782211606
    nsecs: 690566778
  frame_id: map
pose: 
  pose: 
    position: 
      x: -3.02031373978
      y: -0.151150152087
      z: 0.0
    orientation: 
      x: 0.0
      y: 0.0
      z: -0.702130025928
      w: 0.712048753029
  covariance: [0.0, 0.0, 0.0, 0.0, 0.0, 0.0, 0.0, 0.0, 0.0, 0.0, 0.0, 0.0, 0.0, 0.0, 0.0, 0.0, 0.0, 0.0, 0.0, 0.0, 0.0, 0.0, 0.0, 0.0, 0.0, 0.0, 0.0, 0.0, 0.0, 0.0, 0.0, 0.0, 0.0, 0.0, 0.0, 0.0]
---
header: 
  seq: 59864
  stamp: 
    secs: 1782211606
    nsecs: 690566778
  frame_id: map
pose: 
  pose: 
    position: 
      x: -3.02031373978
      y: -0.151150152087
      z: 0.0
    orientation: 
      x: 0.0
      y: 0.0
      z: -0.702130025928
      w: 0.712048753029
  covariance: [0.0, 0.0, 0.0, 0.0, 0.0, 0.0, 0.0, 0.0, 0.0, 0.0, 0.0, 0.0, 0.0, 0.0, 0.0, 0.0, 0.0, 0.0, 0.0, 0.0, 0.0, 0.0, 0.0, 0.0, 0.0, 0.0, 0.0, 0.0, 0.0, 0.0, 0.0, 0.0, 0.0, 0.0, 0.0, 0.0]
---
header: 
  seq: 59865
  stamp: 
    secs: 1782211606
    nsecs: 726198196
  frame_id: map
pose: 
  pose: 
    position: 
      x: -3.02031373978
      y: -0.151150152087
      z: 0.0
    orientation: 
      x: 0.0
      y: 0.0
      z: -0.702130025928
      w: 0.712048753029
  covariance: [0.0, 0.0, 0.0, 0.0, 0.0, 0.0, 0.0, 0.0, 0.0, 0.0, 0.0, 0.0, 0.0, 0.0, 0.0, 0.0, 0.0, 0.0, 0.0, 0.0, 0.0, 0.0, 0.0, 0.0, 0.0, 0.0, 0.0, 0.0, 0.0, 0.0, 0.0, 0.0, 0.0, 0.0, 0.0, 0.0]
---
header: 
  seq: 59866
  stamp: 
    secs: 1782211606
    nsecs: 726198196
  frame_id: map
pose: 
  pose: 
    position: 
      x: -3.02031373978
      y: -0.151150152087
      z: 0.0
    orientation: 
      x: 0.0
      y: 0.0
      z: -0.702130025928
      w: 0.712048753029
  covariance: [0.0, 0.0, 0.0, 0.0, 0.0, 0.0, 0.0, 0.0, 0.0, 0.0, 0.0, 0.0, 0.0, 0.0, 0.0, 0.0, 0.0, 0.0, 0.0, 0.0, 0.0, 0.0, 0.0, 0.0, 0.0, 0.0, 0.0, 0.0, 0.0, 0.0, 0.0, 0.0, 0.0, 0.0, 0.0, 0.0]
---
header: 
  seq: 59867
  stamp: 
    secs: 1782211606
    nsecs: 761899710
  frame_id: map
pose: 
  pose: 
    position: 
      x: -3.02031373978
      y: -0.151150152087
      z: 0.0
    orientation: 
      x: 0.0
      y: 0.0
      z: -0.702130025928
      w: 0.712048753029
  covariance: [0.0, 0.0, 0.0, 0.0, 0.0, 0.0, 0.0, 0.0, 0.0, 0.0, 0.0, 0.0, 0.0, 0.0, 0.0, 0.0, 0.0, 0.0, 0.0, 0.0, 0.0, 0.0, 0.0, 0.0, 0.0, 0.0, 0.0, 0.0, 0.0, 0.0, 0.0, 0.0, 0.0, 0.0, 0.0, 0.0]
---
header: 
  seq: 59868
  stamp: 
    secs: 1782211606
    nsecs: 761899710
  frame_id: map
pose: 
  pose: 
    position: 
      x: -3.02031373978
      y: -0.151150152087
      z: 0.0
    orientation: 
      x: 0.0
      y: 0.0
      z: -0.702130025928
      w: 0.712048753029
  covariance: [0.0, 0.0, 0.0, 0.0, 0.0, 0.0, 0.0, 0.0, 0.0, 0.0, 0.0, 0.0, 0.0, 0.0, 0.0, 0.0, 0.0, 0.0, 0.0, 0.0, 0.0, 0.0, 0.0, 0.0, 0.0, 0.0, 0.0, 0.0, 0.0, 0.0, 0.0, 0.0, 0.0, 0.0, 0.0, 0.0]
---
header: 
  seq: 59869
  stamp: 
    secs: 1782211606
    nsecs: 797434807
  frame_id: map
pose: 
  pose: 
    position: 
      x: -3.02031373978
      y: -0.151150152087
      z: 0.0
    orientation: 
      x: 0.0
      y: 0.0
      z: -0.702130025928
      w: 0.712048753029
  covariance: [0.0, 0.0, 0.0, 0.0, 0.0, 0.0, 0.0, 0.0, 0.0, 0.0, 0.0, 0.0, 0.0, 0.0, 0.0, 0.0, 0.0, 0.0, 0.0, 0.0, 0.0, 0.0, 0.0, 0.0, 0.0, 0.0, 0.0, 0.0, 0.0, 0.0, 0.0, 0.0, 0.0, 0.0, 0.0, 0.0]
---
header: 
  seq: 59870
  stamp: 
    secs: 1782211606
    nsecs: 797434807
  frame_id: map
pose: 
  pose: 
    position: 
      x: -3.02031373978
      y: -0.151150152087
      z: 0.0
    orientation: 
      x: 0.0
      y: 0.0
      z: -0.702130025928
      w: 0.712048753029
  covariance: [0.0, 0.0, 0.0, 0.0, 0.0, 0.0, 0.0, 0.0, 0.0, 0.0, 0.0, 0.0, 0.0, 0.0, 0.0, 0.0, 0.0, 0.0, 0.0, 0.0, 0.0, 0.0, 0.0, 0.0, 0.0, 0.0, 0.0, 0.0, 0.0, 0.0, 0.0, 0.0, 0.0, 0.0, 0.0, 0.0]
---
header: 
  seq: 59871
  stamp: 
    secs: 1782211606
    nsecs: 833015203
  frame_id: map
pose: 
  pose: 
    position: 
      x: -3.02031373978
      y: -0.151150152087
      z: 0.0
    orientation: 
      x: 0.0
      y: 0.0
      z: -0.702130025928
      w: 0.712048753029
  covariance: [0.0, 0.0, 0.0, 0.0, 0.0, 0.0, 0.0, 0.0, 0.0, 0.0, 0.0, 0.0, 0.0, 0.0, 0.0, 0.0, 0.0, 0.0, 0.0, 0.0, 0.0, 0.0, 0.0, 0.0, 0.0, 0.0, 0.0, 0.0, 0.0, 0.0, 0.0, 0.0, 0.0, 0.0, 0.0, 0.0]
---
header: 
  seq: 59872
  stamp: 
    secs: 1782211606
    nsecs: 868671894
  frame_id: map
pose: 
  pose: 
    position: 
      x: -3.02031322181
      y: -0.151185260501
      z: 0.0
    orientation: 
      x: 0.0
      y: 0.0
      z: -0.702136503254
      w: 0.712042365873
  covariance: [0.0, 0.0, 0.0, 0.0, 0.0, 0.0, 0.0, 0.0, 0.0, 0.0, 0.0, 0.0, 0.0, 0.0, 0.0, 0.0, 0.0, 0.0, 0.0, 0.0, 0.0, 0.0, 0.0, 0.0, 0.0, 0.0, 0.0, 0.0, 0.0, 0.0, 0.0, 0.0, 0.0, 0.0, 0.0, 0.0]
---
header: 
  seq: 59873
  stamp: 
    secs: 1782211606
    nsecs: 868671894
  frame_id: map
pose: 
  pose: 
    position: 
      x: -3.02031322181
      y: -0.151185260501
      z: 0.0
    orientation: 
      x: 0.0
      y: 0.0
      z: -0.702136503254
      w: 0.712042365873
  covariance: [0.0, 0.0, 0.0, 0.0, 0.0, 0.0, 0.0, 0.0, 0.0, 0.0, 0.0, 0.0, 0.0, 0.0, 0.0, 0.0, 0.0, 0.0, 0.0, 0.0, 0.0, 0.0, 0.0, 0.0, 0.0, 0.0, 0.0, 0.0, 0.0, 0.0, 0.0, 0.0, 0.0, 0.0, 0.0, 0.0]
---
header: 
  seq: 59874
  stamp: 
    secs: 1782211606
    nsecs: 939927340
  frame_id: map
pose: 
  pose: 
    position: 
      x: -3.02030897141
      y: -0.151473358274
      z: 0.0
    orientation: 
      x: 0.0
      y: 0.0
      z: -0.70219669831
      w: 0.711983003226
  covariance: [0.0, 0.0, 0.0, 0.0, 0.0, 0.0, 0.0, 0.0, 0.0, 0.0, 0.0, 0.0, 0.0, 0.0, 0.0, 0.0, 0.0, 0.0, 0.0, 0.0, 0.0, 0.0, 0.0, 0.0, 0.0, 0.0, 0.0, 0.0, 0.0, 0.0, 0.0, 0.0, 0.0, 0.0, 0.0, 0.0]
---
header: 
  seq: 59875
  stamp: 
    secs: 1782211606
    nsecs: 939927340
  frame_id: map
pose: 
  pose: 
    position: 
      x: -3.02030897141
      y: -0.151473358274
      z: 0.0
    orientation: 
      x: 0.0
      y: 0.0
      z: -0.70219669831
      w: 0.711983003226
  covariance: [0.0, 0.0, 0.0, 0.0, 0.0, 0.0, 0.0, 0.0, 0.0, 0.0, 0.0, 0.0, 0.0, 0.0, 0.0, 0.0, 0.0, 0.0, 0.0, 0.0, 0.0, 0.0, 0.0, 0.0, 0.0, 0.0, 0.0, 0.0, 0.0, 0.0, 0.0, 0.0, 0.0, 0.0, 0.0, 0.0]
---
header: 
  seq: 59876
  stamp: 
    secs: 1782211606
    nsecs: 975530148
  frame_id: map
pose: 
  pose: 
    position: 
      x: -3.02030773432
      y: -0.151557209338
      z: 0.0
    orientation: 
      x: 0.0
      y: 0.0
      z: -0.702200974135
      w: 0.711978786147
  covariance: [0.0, 0.0, 0.0, 0.0, 0.0, 0.0, 0.0, 0.0, 0.0, 0.0, 0.0, 0.0, 0.0, 0.0, 0.0, 0.0, 0.0, 0.0, 0.0, 0.0, 0.0, 0.0, 0.0, 0.0, 0.0, 0.0, 0.0, 0.0, 0.0, 0.0, 0.0, 0.0, 0.0, 0.0, 0.0, 0.0]
---
header: 
  seq: 59877
  stamp: 
    secs: 1782211606
    nsecs: 975530148
  frame_id: map
pose: 
  pose: 
    position: 
      x: -3.02030773432
      y: -0.151557209338
      z: 0.0
    orientation: 
      x: 0.0
      y: 0.0
      z: -0.702200974135
      w: 0.711978786147
  covariance: [0.0, 0.0, 0.0, 0.0, 0.0, 0.0, 0.0, 0.0, 0.0, 0.0, 0.0, 0.0, 0.0, 0.0, 0.0, 0.0, 0.0, 0.0, 0.0, 0.0, 0.0, 0.0, 0.0, 0.0, 0.0, 0.0, 0.0, 0.0, 0.0, 0.0, 0.0, 0.0, 0.0, 0.0, 0.0, 0.0]
---
header: 
  seq: 59878
  stamp: 
    secs: 1782211607
    nsecs:  11150599
  frame_id: map
pose: 
  pose: 
    position: 
      x: -3.0203060778
      y: -0.151669490731
      z: 0.0
    orientation: 
      x: 0.0
      y: 0.0
      z: -0.702225874722
      w: 0.711954226669
  covariance: [0.0, 0.0, 0.0, 0.0, 0.0, 0.0, 0.0, 0.0, 0.0, 0.0, 0.0, 0.0, 0.0, 0.0, 0.0, 0.0, 0.0, 0.0, 0.0, 0.0, 0.0, 0.0, 0.0, 0.0, 0.0, 0.0, 0.0, 0.0, 0.0, 0.0, 0.0, 0.0, 0.0, 0.0, 0.0, 0.0]
---
header: 
  seq: 59879
  stamp: 
    secs: 1782211607
    nsecs:  11150599
  frame_id: map
pose: 
  pose: 
    position: 
      x: -3.0203060778
      y: -0.151669490731
      z: 0.0
    orientation: 
      x: 0.0
      y: 0.0
      z: -0.702225874722
      w: 0.711954226669
  covariance: [0.0, 0.0, 0.0, 0.0, 0.0, 0.0, 0.0, 0.0, 0.0, 0.0, 0.0, 0.0, 0.0, 0.0, 0.0, 0.0, 0.0, 0.0, 0.0, 0.0, 0.0, 0.0, 0.0, 0.0, 0.0, 0.0, 0.0, 0.0, 0.0, 0.0, 0.0, 0.0, 0.0, 0.0, 0.0, 0.0]
---
header: 
  seq: 59880
  stamp: 
    secs: 1782211607
    nsecs:  46790600
  frame_id: map
pose: 
  pose: 
    position: 
      x: -3.02030380372
      y: -0.151836731369
      z: 0.0
    orientation: 
      x: 0.0
      y: 0.0
      z: -0.70226905422
      w: 0.711911634605
  covariance: [0.0, 0.0, 0.0, 0.0, 0.0, 0.0, 0.0, 0.0, 0.0, 0.0, 0.0, 0.0, 0.0, 0.0, 0.0, 0.0, 0.0, 0.0, 0.0, 0.0, 0.0, 0.0, 0.0, 0.0, 0.0, 0.0, 0.0, 0.0, 0.0, 0.0, 0.0, 0.0, 0.0, 0.0, 0.0, 0.0]
---
header: 
  seq: 59881
  stamp: 
    secs: 1782211607
    nsecs:  46790600
  frame_id: map
pose: 
  pose: 
    position: 
      x: -3.02030380372
      y: -0.151836731369
      z: 0.0
    orientation: 
      x: 0.0
      y: 0.0
      z: -0.70226905422
      w: 0.711911634605
  covariance: [0.0, 0.0, 0.0, 0.0, 0.0, 0.0, 0.0, 0.0, 0.0, 0.0, 0.0, 0.0, 0.0, 0.0, 0.0, 0.0, 0.0, 0.0, 0.0, 0.0, 0.0, 0.0, 0.0, 0.0, 0.0, 0.0, 0.0, 0.0, 0.0, 0.0, 0.0, 0.0, 0.0, 0.0, 0.0, 0.0]
---
header: 
  seq: 59882
  stamp: 
    secs: 1782211607
    nsecs: 100111008
  frame_id: map
pose: 
  pose: 
    position: 
      x: -3.02030107427
      y: -0.152048166723
      z: 0.0
    orientation: 
      x: 0.0
      y: 0.0
      z: -0.702292082408
      w: 0.71188891759
  covariance: [0.0, 0.0, 0.0, 0.0, 0.0, 0.0, 0.0, 0.0, 0.0, 0.0, 0.0, 0.0, 0.0, 0.0, 0.0, 0.0, 0.0, 0.0, 0.0, 0.0, 0.0, 0.0, 0.0, 0.0, 0.0, 0.0, 0.0, 0.0, 0.0, 0.0, 0.0, 0.0, 0.0, 0.0, 0.0, 0.0]
---
header: 
  seq: 59883
  stamp: 
    secs: 1782211607
    nsecs:  57178259
  frame_id: map
pose: 
  pose: 
    position: 
      x: -3.02030348778
      y: -0.151861205697
      z: 0.0
    orientation: 
      x: 0.0
      y: 0.0
      z: -0.702280858397
      w: 0.711899990118
  covariance: [0.0, 0.0, 0.0, 0.0, 0.0, 0.0, 0.0, 0.0, 0.0, 0.0, 0.0, 0.0, 0.0, 0.0, 0.0, 0.0, 0.0, 0.0, 0.0, 0.0, 0.0, 0.0, 0.0, 0.0, 0.0, 0.0, 0.0, 0.0, 0.0, 0.0, 0.0, 0.0, 0.0, 0.0, 0.0, 0.0]
---
header: 
  seq: 59884
  stamp: 
    secs: 1782211607
    nsecs: 100111008
  frame_id: map
pose: 
  pose: 
    position: 
      x: -3.02030107427
      y: -0.152048166723
      z: 0.0
    orientation: 
      x: 0.0
      y: 0.0
      z: -0.702292082408
      w: 0.71188891759
  covariance: [0.0, 0.0, 0.0, 0.0, 0.0, 0.0, 0.0, 0.0, 0.0, 0.0, 0.0, 0.0, 0.0, 0.0, 0.0, 0.0, 0.0, 0.0, 0.0, 0.0, 0.0, 0.0, 0.0, 0.0, 0.0, 0.0, 0.0, 0.0, 0.0, 0.0, 0.0, 0.0, 0.0, 0.0, 0.0, 0.0]
---
header: 
  seq: 59885
  stamp: 
    secs: 1782211607
    nsecs: 135741949
  frame_id: map
pose: 
  pose: 
    position: 
      x: -3.02029828562
      y: -0.152262295055
      z: 0.0
    orientation: 
      x: 0.0
      y: 0.0
      z: -0.702254760025
      w: 0.711925734906
  covariance: [0.0, 0.0, 0.0, 0.0, 0.0, 0.0, 0.0, 0.0, 0.0, 0.0, 0.0, 0.0, 0.0, 0.0, 0.0, 0.0, 0.0, 0.0, 0.0, 0.0, 0.0, 0.0, 0.0, 0.0, 0.0, 0.0, 0.0, 0.0, 0.0, 0.0, 0.0, 0.0, 0.0, 0.0, 0.0, 0.0]
---
header: 
  seq: 59886
  stamp: 
    secs: 1782211607
    nsecs: 135741949
  frame_id: map
pose: 
  pose: 
    position: 
      x: -3.02029828562
      y: -0.152262295055
      z: 0.0
    orientation: 
      x: 0.0
      y: 0.0
      z: -0.702254760025
      w: 0.711925734906
  covariance: [0.0, 0.0, 0.0, 0.0, 0.0, 0.0, 0.0, 0.0, 0.0, 0.0, 0.0, 0.0, 0.0, 0.0, 0.0, 0.0, 0.0, 0.0, 0.0, 0.0, 0.0, 0.0, 0.0, 0.0, 0.0, 0.0, 0.0, 0.0, 0.0, 0.0, 0.0, 0.0, 0.0, 0.0, 0.0, 0.0]
---
header: 
  seq: 59887
  stamp: 
    secs: 1782211607
    nsecs: 171384096
  frame_id: map
pose: 
  pose: 
    position: 
      x: -3.02029493087
      y: -0.152505698746
      z: 0.0
    orientation: 
      x: 0.0
      y: 0.0
      z: -0.702162592487
      w: 0.712016638648
  covariance: [0.0, 0.0, 0.0, 0.0, 0.0, 0.0, 0.0, 0.0, 0.0, 0.0, 0.0, 0.0, 0.0, 0.0, 0.0, 0.0, 0.0, 0.0, 0.0, 0.0, 0.0, 0.0, 0.0, 0.0, 0.0, 0.0, 0.0, 0.0, 0.0, 0.0, 0.0, 0.0, 0.0, 0.0, 0.0, 0.0]
---
header: 
  seq: 59888
  stamp: 
    secs: 1782211607
    nsecs: 171384096
  frame_id: map
pose: 
  pose: 
    position: 
      x: -3.02029493087
      y: -0.152505698746
      z: 0.0
    orientation: 
      x: 0.0
      y: 0.0
      z: -0.702162592487
      w: 0.712016638648
  covariance: [0.0, 0.0, 0.0, 0.0, 0.0, 0.0, 0.0, 0.0, 0.0, 0.0, 0.0, 0.0, 0.0, 0.0, 0.0, 0.0, 0.0, 0.0, 0.0, 0.0, 0.0, 0.0, 0.0, 0.0, 0.0, 0.0, 0.0, 0.0, 0.0, 0.0, 0.0, 0.0, 0.0, 0.0, 0.0, 0.0]
---
header: 
  seq: 59889
  stamp: 
    secs: 1782211607
    nsecs: 206935167
  frame_id: map
pose: 
  pose: 
    position: 
      x: -3.0202915924
      y: -0.152732145256
      z: 0.0
    orientation: 
      x: 0.0
      y: 0.0
      z: -0.702081904303
      w: 0.712096201121
  covariance: [0.0, 0.0, 0.0, 0.0, 0.0, 0.0, 0.0, 0.0, 0.0, 0.0, 0.0, 0.0, 0.0, 0.0, 0.0, 0.0, 0.0, 0.0, 0.0, 0.0, 0.0, 0.0, 0.0, 0.0, 0.0, 0.0, 0.0, 0.0, 0.0, 0.0, 0.0, 0.0, 0.0, 0.0, 0.0, 0.0]
---
header: 
  seq: 59890
  stamp: 
    secs: 1782211607
    nsecs: 206935167
  frame_id: map
pose: 
  pose: 
    position: 
      x: -3.0202915924
      y: -0.152732145256
      z: 0.0
    orientation: 
      x: 0.0
      y: 0.0
      z: -0.702081904303
      w: 0.712096201121
  covariance: [0.0, 0.0, 0.0, 0.0, 0.0, 0.0, 0.0, 0.0, 0.0, 0.0, 0.0, 0.0, 0.0, 0.0, 0.0, 0.0, 0.0, 0.0, 0.0, 0.0, 0.0, 0.0, 0.0, 0.0, 0.0, 0.0, 0.0, 0.0, 0.0, 0.0, 0.0, 0.0, 0.0, 0.0, 0.0, 0.0]
---
header: 
  seq: 59891
  stamp: 
    secs: 1782211607
    nsecs: 242563725
  frame_id: map
pose: 
  pose: 
    position: 
      x: -3.02028725808
