header: 
  seq: 0
  stamp: 
    secs: 1782384422
    nsecs: 510783653
  frame_id: map
submap: 
  - 
    trajectory_id: 0
    submap_index: 0
    submap_version: 160
    pose: 
      position: 
        x: 0.0
        y: 0.0
        z: 0.0
      orientation: 
        x: 0.0
        y: 0.0
        z: 0.0
        w: 1.0
  - 
    trajectory_id: 0
    submap_index: 1
    submap_version: 160
    pose: 
      position: 
        x: -1.82952728358
        y: 0.0288200796599
        z: 0.0
      orientation: 
        x: -0.0
        y: -0.0
        z: -0.000692961215036
        w: 0.999999759902
  - 
    trajectory_id: 0
    submap_index: 2
    submap_version: 160
    pose: 
      position: 
        x: -2.20492045615
        y: -1.02598367261
        z: 0.0
      orientation: 
        x: -0.0
        y: -0.0
        z: -0.00154661804053
        w: 0.999998803986
  - 
    trajectory_id: 0
    submap_index: 3
    submap_version: 160
    pose: 
      position: 
        x: -2.24673673455
        y: -0.262527717639
        z: 0.0
      orientation: 
        x: -0.0
        y: -0.0
        z: -0.0016837373229
        w: 0.999998582513
  - 
    trajectory_id: 0
    submap_index: 4
    submap_version: 160
    pose: 
      position: 
        x: -0.169842326697
        y: -0.136971480321
        z: 0.0
      orientation: 
        x: -0.0
        y: -0.0
        z: -0.00126677995547
        w: 0.999999197634
  - 
    trajectory_id: 0
    submap_index: 5
    submap_version: 160
    pose: 
      position: 
        x: 0.235564166431
        y: -0.0568673216656
        z: 0.0
      orientation: 
        x: 0.0
        y: 0.0
        z: 0.000606764681138
        w: 0.999999815918
  - 
    trajectory_id: 0
    submap_index: 6
    submap_version: 160
    pose: 
      position: 
        x: 0.32100712133
        y: -2.68659607929
        z: 0.0
      orientation: 
        x: 0.0
        y: 0.0
        z: 0.0043268179489
        w: 0.999990639279
  - 
    trajectory_id: 0
    submap_index: 7
    submap_version: 160
    pose: 
      position: 
        x: 0.767924885222
        y: -3.52962031479
        z: 0.0
      orientation: 
        x: 0.0
        y: 0.0
        z: 0.00624175609598
        w: 0.999980520051
  - 
    trajectory_id: 0
    submap_index: 8
    submap_version: 160
    pose: 
      position: 
        x: 1.35819595451
        y: -3.6013593317
        z: 0.0
      orientation: 
        x: 0.0
        y: 0.0
        z: 0.00710217239759
        w: 0.999974779256
  - 
    trajectory_id: 0
    submap_index: 9
    submap_version: 134
    pose: 
      position: 
        x: 1.37644290018
        y: -3.70502432433
        z: 0.0
      orientation: 
        x: 0.0
        y: 0.0
        z: 0.0088355629129
        w: 0.999960965652
  - 
    trajectory_id: 0
    submap_index: 10
    submap_version: 54
    pose: 
      position: 
        x: 0.251403294671
        y: -2.78684597057
        z: 0.0
      orientation: 
        x: 0.0
        y: 0.0
        z: 0.0115139075211
        w: 0.99993371277
  - 
    trajectory_id: 1
    submap_index: 0
    submap_version: 34
    pose: 
      position: 
        x: 0.150346045707
        y: 0.150665520196
        z: 0.0
      orientation: 
        x: -0.0
        y: -0.0
        z: -0.868970746792
        w: 0.494863457147
---
header: 
  seq: 1
  stamp: 
    secs: 1782384422
    nsecs: 811574439
  frame_id: map
submap: 
  - 
    trajectory_id: 0
    submap_index: 0
    submap_version: 160
    pose: 
      position: 
        x: 0.0
        y: 0.0
        z: 0.0
      orientation: 
        x: 0.0
        y: 0.0
        z: 0.0
        w: 1.0
  - 
    trajectory_id: 0
    submap_index: 1
    submap_version: 160
    pose: 
      position: 
        x: -1.82952728358
        y: 0.0288200796599
        z: 0.0
      orientation: 
        x: -0.0
        y: -0.0
        z: -0.000692961215036
        w: 0.999999759902
  - 
    trajectory_id: 0
    submap_index: 2
    submap_version: 160
    pose: 
      position: 
        x: -2.20492045615
        y: -1.02598367261
        z: 0.0
      orientation: 
        x: -0.0
        y: -0.0
        z: -0.00154661804053
        w: 0.999998803986
  - 
    trajectory_id: 0
    submap_index: 3
    submap_version: 160
    pose: 
      position: 
        x: -2.24673673455
        y: -0.262527717639
        z: 0.0
      orientation: 
        x: -0.0
        y: -0.0
        z: -0.0016837373229
        w: 0.999998582513
  - 
    trajectory_id: 0
    submap_index: 4
    submap_version: 160
    pose: 
      position: 
        x: -0.169842326697
        y: -0.136971480321
        z: 0.0
      orientation: 
        x: -0.0
        y: -0.0
        z: -0.00126677995547
        w: 0.999999197634
  - 
    trajectory_id: 0
    submap_index: 5
    submap_version: 160
    pose: 
      position: 
        x: 0.235564166431
        y: -0.0568673216656
        z: 0.0
      orientation: 
        x: 0.0
        y: 0.0
        z: 0.000606764681138
        w: 0.999999815918
  - 
    trajectory_id: 0
    submap_index: 6
    submap_version: 160
    pose: 
      position: 
        x: 0.32100712133
        y: -2.68659607929
        z: 0.0
      orientation: 
        x: 0.0
        y: 0.0
        z: 0.0043268179489
        w: 0.999990639279
  - 
    trajectory_id: 0
    submap_index: 7
    submap_version: 160
    pose: 
      position: 
        x: 0.767924885222
        y: -3.52962031479
        z: 0.0
      orientation: 
        x: 0.0
        y: 0.0
        z: 0.00624175609598
        w: 0.999980520051
  - 
    trajectory_id: 0
    submap_index: 8
    submap_version: 160
    pose: 
      position: 
        x: 1.35819595451
        y: -3.6013593317
        z: 0.0
      orientation: 
        x: 0.0
        y: 0.0
        z: 0.00710217239759
        w: 0.999974779256
  - 
    trajectory_id: 0
    submap_index: 9
    submap_version: 134
    pose: 
      position: 
        x: 1.37644290018
        y: -3.70502432433
        z: 0.0
      orientation: 
        x: 0.0
        y: 0.0
        z: 0.0088355629129
        w: 0.999960965652
  - 
    trajectory_id: 0
    submap_index: 10
    submap_version: 54
    pose: 
      position: 
        x: 0.251403294671
        y: -2.78684597057
        z: 0.0
      orientation: 
        x: 0.0
        y: 0.0
        z: 0.0115139075211
        w: 0.99993371277
  - 
    trajectory_id: 1
    submap_index: 0
    submap_version: 34
    pose: 
      position: 
        x: 0.150346045707
        y: 0.150665520196
        z: 0.0
      orientation: 
        x: -0.0
        y: -0.0
        z: -0.868970746792
        w: 0.494863457147
---
header: 
  seq: 2
  stamp: 
    secs: 1782384423
    nsecs: 114336386
  frame_id: map
submap: 
  - 
    trajectory_id: 0
    submap_index: 0
    submap_version: 160
    pose: 
      position: 
        x: 0.0
        y: 0.0
        z: 0.0
      orientation: 
        x: 0.0
        y: 0.0
        z: 0.0
        w: 1.0
  - 
    trajectory_id: 0
    submap_index: 1
    submap_version: 160
    pose: 
      position: 
        x: -1.82952728358
        y: 0.0288200796599
        z: 0.0
      orientation: 
        x: -0.0
        y: -0.0
        z: -0.000692961215036
        w: 0.999999759902
  - 
    trajectory_id: 0
    submap_index: 2
    submap_version: 160
    pose: 
      position: 
        x: -2.20492045615
        y: -1.02598367261
        z: 0.0
      orientation: 
        x: -0.0
        y: -0.0
        z: -0.00154661804053
        w: 0.999998803986
  - 
    trajectory_id: 0
    submap_index: 3
    submap_version: 160
    pose: 
      position: 
        x: -2.24673673455
        y: -0.262527717639
        z: 0.0
      orientation: 
        x: -0.0
        y: -0.0
        z: -0.0016837373229
        w: 0.999998582513
  - 
    trajectory_id: 0
    submap_index: 4
    submap_version: 160
    pose: 
      position: 
        x: -0.169842326697
        y: -0.136971480321
        z: 0.0
      orientation: 
        x: -0.0
        y: -0.0
        z: -0.00126677995547
        w: 0.999999197634
  - 
    trajectory_id: 0
    submap_index: 5
    submap_version: 160
    pose: 
      position: 
        x: 0.235564166431
        y: -0.0568673216656
        z: 0.0
      orientation: 
        x: 0.0
        y: 0.0
        z: 0.000606764681138
        w: 0.999999815918
  - 
    trajectory_id: 0
    submap_index: 6
    submap_version: 160
    pose: 
      position: 
        x: 0.32100712133
        y: -2.68659607929
        z: 0.0
      orientation: 
        x: 0.0
        y: 0.0
        z: 0.0043268179489
        w: 0.999990639279
  - 
    trajectory_id: 0
    submap_index: 7
    submap_version: 160
    pose: 
      position: 
        x: 0.767924885222
        y: -3.52962031479
        z: 0.0
      orientation: 
        x: 0.0
        y: 0.0
        z: 0.00624175609598
        w: 0.999980520051
  - 
    trajectory_id: 0
    submap_index: 8
    submap_version: 160
    pose: 
      position: 
        x: 1.35819595451
        y: -3.6013593317
        z: 0.0
      orientation: 
        x: 0.0
        y: 0.0
        z: 0.00710217239759
        w: 0.999974779256
  - 
    trajectory_id: 0
    submap_index: 9
    submap_version: 134
    pose: 
      position: 
        x: 1.37644290018
        y: -3.70502432433
        z: 0.0
      orientation: 
        x: 0.0
        y: 0.0
        z: 0.0088355629129
        w: 0.999960965652
  - 
    trajectory_id: 0
    submap_index: 10
    submap_version: 54
    pose: 
      position: 
        x: 0.251403294671
        y: -2.78684597057
        z: 0.0
      orientation: 
        x: 0.0
        y: 0.0
        z: 0.0115139075211
        w: 0.99993371277
  - 
    trajectory_id: 1
    submap_index: 0
    submap_version: 34
    pose: 
      position: 
        x: 0.150346045707
        y: 0.150665520196
        z: 0.0
      orientation: 
        x: -0.0
        y: -0.0
        z: -0.868970746792
        w: 0.494863457147
  - 
    trajectory_id: 2
    submap_index: 0
    submap_version: 1
    pose: 
      position: 
        x: 0.312970540041
        y: 0.427891594208
        z: 0.0
      orientation: 
        x: 0.0
        y: 0.0
        z: -0.72498262928
        w: 0.688767150235
---
header: 
  seq: 3
  stamp: 
    secs: 1782384423
    nsecs: 417873968
  frame_id: map
submap: 
  - 
    trajectory_id: 0
    submap_index: 0
    submap_version: 160
    pose: 
      position: 
        x: 0.0
        y: 0.0
        z: 0.0
      orientation: 
        x: 0.0
        y: 0.0
        z: 0.0
        w: 1.0
  - 
    trajectory_id: 0
    submap_index: 1
    submap_version: 160
    pose: 
      position: 
        x: -1.82952728358
        y: 0.0288200796599
        z: 0.0
      orientation: 
        x: -0.0
        y: -0.0
        z: -0.000692961215036
        w: 0.999999759902
  - 
    trajectory_id: 0
    submap_index: 2
    submap_version: 160
    pose: 
      position: 
        x: -2.20492045615
        y: -1.02598367261
        z: 0.0
      orientation: 
        x: -0.0
        y: -0.0
        z: -0.00154661804053
        w: 0.999998803986
  - 
    trajectory_id: 0
    submap_index: 3
    submap_version: 160
    pose: 
      position: 
        x: -2.24673673455
        y: -0.262527717639
        z: 0.0
      orientation: 
        x: -0.0
        y: -0.0
        z: -0.0016837373229
        w: 0.999998582513
  - 
    trajectory_id: 0
    submap_index: 4
    submap_version: 160
    pose: 
      position: 
        x: -0.169842326697
        y: -0.136971480321
        z: 0.0
      orientation: 
        x: -0.0
        y: -0.0
        z: -0.00126677995547
        w: 0.999999197634
  - 
    trajectory_id: 0
    submap_index: 5
    submap_version: 160
    pose: 
      position: 
        x: 0.235564166431
        y: -0.0568673216656
        z: 0.0
      orientation: 
        x: 0.0
        y: 0.0
        z: 0.000606764681138
        w: 0.999999815918
  - 
    trajectory_id: 0
    submap_index: 6
    submap_version: 160
    pose: 
      position: 
        x: 0.32100712133
        y: -2.68659607929
        z: 0.0
      orientation: 
        x: 0.0
        y: 0.0
        z: 0.0043268179489
        w: 0.999990639279
  - 
    trajectory_id: 0
    submap_index: 7
    submap_version: 160
    pose: 
      position: 
        x: 0.767924885222
        y: -3.52962031479
        z: 0.0
      orientation: 
        x: 0.0
        y: 0.0
        z: 0.00624175609598
        w: 0.999980520051
  - 
    trajectory_id: 0
    submap_index: 8
    submap_version: 160
    pose: 
      position: 
        x: 1.35819595451
        y: -3.6013593317
        z: 0.0
      orientation: 
        x: 0.0
        y: 0.0
        z: 0.00710217239759
        w: 0.999974779256
  - 
    trajectory_id: 0
    submap_index: 9
    submap_version: 134
    pose: 
      position: 
        x: 1.37644290018
        y: -3.70502432433
        z: 0.0
      orientation: 
        x: 0.0
        y: 0.0
        z: 0.0088355629129
        w: 0.999960965652
  - 
    trajectory_id: 0
    submap_index: 10
    submap_version: 54
    pose: 
      position: 
        x: 0.251403294671
        y: -2.78684597057
        z: 0.0
      orientation: 
        x: 0.0
        y: 0.0
        z: 0.0115139075211
        w: 0.99993371277
  - 
    trajectory_id: 1
    submap_index: 0
    submap_version: 34
    pose: 
      position: 
        x: 0.150346045707
        y: 0.150665520196
        z: 0.0
      orientation: 
        x: -0.0
        y: -0.0
        z: -0.868970746792
        w: 0.494863457147
  - 
    trajectory_id: 2
    submap_index: 0
    submap_version: 1
    pose: 
      position: 
        x: 0.312970540041
        y: 0.427891594208
        z: 0.0
      orientation: 
        x: 0.0
        y: 0.0
        z: -0.72498262928
        w: 0.688767150235
---
header: 
  seq: 4
  stamp: 
    secs: 1782384423
    nsecs: 734429985
  frame_id: map
submap: 
  - 
    trajectory_id: 0
    submap_index: 0
    submap_version: 160
    pose: 
      position: 
        x: 0.0
        y: 0.0
        z: 0.0
      orientation: 
        x: 0.0
        y: 0.0
        z: 0.0
        w: 1.0
  - 
    trajectory_id: 0
    submap_index: 1
    submap_version: 160
    pose: 
      position: 
        x: -1.82952728358
        y: 0.0288200796599
        z: 0.0
      orientation: 
        x: -0.0
        y: -0.0
        z: -0.000692961215036
        w: 0.999999759902
  - 
    trajectory_id: 0
    submap_index: 2
    submap_version: 160
    pose: 
      position: 
        x: -2.20492045615
        y: -1.02598367261
        z: 0.0
      orientation: 
        x: -0.0
        y: -0.0
        z: -0.00154661804053
        w: 0.999998803986
  - 
    trajectory_id: 0
    submap_index: 3
    submap_version: 160
    pose: 
      position: 
        x: -2.24673673455
        y: -0.262527717639
        z: 0.0
      orientation: 
        x: -0.0
        y: -0.0
        z: -0.0016837373229
        w: 0.999998582513
  - 
    trajectory_id: 0
    submap_index: 4
    submap_version: 160
    pose: 
      position: 
        x: -0.169842326697
        y: -0.136971480321
        z: 0.0
      orientation: 
        x: -0.0
        y: -0.0
        z: -0.00126677995547
        w: 0.999999197634
  - 
    trajectory_id: 0
    submap_index: 5
    submap_version: 160
    pose: 
      position: 
        x: 0.235564166431
        y: -0.0568673216656
        z: 0.0
      orientation: 
        x: 0.0
        y: 0.0
        z: 0.000606764681138
        w: 0.999999815918
  - 
    trajectory_id: 0
    submap_index: 6
    submap_version: 160
    pose: 
      position: 
        x: 0.32100712133
        y: -2.68659607929
        z: 0.0
      orientation: 
        x: 0.0
        y: 0.0
        z: 0.0043268179489
        w: 0.999990639279
  - 
    trajectory_id: 0
    submap_index: 7
    submap_version: 160
    pose: 
      position: 
        x: 0.767924885222
        y: -3.52962031479
        z: 0.0
      orientation: 
        x: 0.0
        y: 0.0
        z: 0.00624175609598
        w: 0.999980520051
  - 
    trajectory_id: 0
    submap_index: 8
    submap_version: 160
    pose: 
      position: 
        x: 1.35819595451
        y: -3.6013593317
        z: 0.0
      orientation: 
        x: 0.0
        y: 0.0
        z: 0.00710217239759
        w: 0.999974779256
  - 
    trajectory_id: 0
    submap_index: 9
    submap_version: 134
    pose: 
      position: 
        x: 1.37644290018
        y: -3.70502432433
        z: 0.0
      orientation: 
        x: 0.0
        y: 0.0
        z: 0.0088355629129
        w: 0.999960965652
  - 
    trajectory_id: 0
    submap_index: 10
    submap_version: 54
    pose: 
      position: 
        x: 0.251403294671
        y: -2.78684597057
        z: 0.0
      orientation: 
        x: 0.0
        y: 0.0
        z: 0.0115139075211
        w: 0.99993371277
  - 
    trajectory_id: 1
    submap_index: 0
    submap_version: 34
    pose: 
      position: 
        x: 0.150346045707
        y: 0.150665520196
        z: 0.0
      orientation: 
        x: -0.0
        y: -0.0
        z: -0.868970746792
        w: 0.494863457147
  - 
    trajectory_id: 2
    submap_index: 0
    submap_version: 1
    pose: 
      position: 
        x: 0.312970540041
        y: 0.427891594208
        z: 0.0
      orientation: 
        x: 0.0
        y: 0.0
        z: -0.72498262928
        w: 0.688767150235
---
header: 
  seq: 5
  stamp: 
    secs: 1782384424
    nsecs:  39704386
  frame_id: map
submap: 
  - 
    trajectory_id: 0
    submap_index: 0
    submap_version: 160
    pose: 
      position: 
        x: 0.0
        y: 0.0
        z: 0.0
      orientation: 
        x: 0.0
        y: 0.0
        z: 0.0
        w: 1.0
  - 
    trajectory_id: 0
    submap_index: 1
    submap_version: 160
    pose: 
      position: 
        x: -1.82952728358
        y: 0.0288200796599
        z: 0.0
      orientation: 
        x: -0.0
        y: -0.0
        z: -0.000692961215036
        w: 0.999999759902
  - 
    trajectory_id: 0
    submap_index: 2
    submap_version: 160
    pose: 
      position: 
        x: -2.20492045615
        y: -1.02598367261
        z: 0.0
      orientation: 
        x: -0.0
        y: -0.0
        z: -0.00154661804053
        w: 0.999998803986
  - 
    trajectory_id: 0
    submap_index: 3
    submap_version: 160
    pose: 
      position: 
        x: -2.24673673455
        y: -0.262527717639
        z: 0.0
      orientation: 
        x: -0.0
        y: -0.0
        z: -0.0016837373229
        w: 0.999998582513
  - 
    trajectory_id: 0
    submap_index: 4
    submap_version: 160
    pose: 
      position: 
        x: -0.169842326697
        y: -0.136971480321
        z: 0.0
      orientation: 
        x: -0.0
        y: -0.0
        z: -0.00126677995547
        w: 0.999999197634
  - 
    trajectory_id: 0
    submap_index: 5
    submap_version: 160
    pose: 
      position: 
        x: 0.235564166431
        y: -0.0568673216656
        z: 0.0
      orientation: 
        x: 0.0
        y: 0.0
        z: 0.000606764681138
        w: 0.999999815918
  - 
    trajectory_id: 0
    submap_index: 6
    submap_version: 160
    pose: 
      position: 
        x: 0.32100712133
        y: -2.68659607929
        z: 0.0
      orientation: 
        x: 0.0
        y: 0.0
        z: 0.0043268179489
        w: 0.999990639279
  - 
    trajectory_id: 0
    submap_index: 7
    submap_version: 160
    pose: 
      position: 
        x: 0.767924885222
        y: -3.52962031479
        z: 0.0
      orientation: 
        x: 0.0
        y: 0.0
        z: 0.00624175609598
        w: 0.999980520051
  - 
    trajectory_id: 0
    submap_index: 8
    submap_version: 160
    pose: 
      position: 
        x: 1.35819595451
        y: -3.6013593317
        z: 0.0
      orientation: 
        x: 0.0
        y: 0.0
        z: 0.00710217239759
        w: 0.999974779256
  - 
    trajectory_id: 0
    submap_index: 9
    submap_version: 134
    pose: 
      position: 
        x: 1.37644290018
        y: -3.70502432433
        z: 0.0
      orientation: 
        x: 0.0
        y: 0.0
        z: 0.0088355629129
        w: 0.999960965652
  - 
    trajectory_id: 0
    submap_index: 10
    submap_version: 54
    pose: 
      position: 
        x: 0.251403294671
        y: -2.78684597057
        z: 0.0
      orientation: 
        x: 0.0
        y: 0.0
        z: 0.0115139075211
        w: 0.99993371277
  - 
    trajectory_id: 1
    submap_index: 0
    submap_version: 34
    pose: 
      position: 
        x: 0.150346045707
        y: 0.150665520196
        z: 0.0
      orientation: 
        x: -0.0
        y: -0.0
        z: -0.868970746792
        w: 0.494863457147
  - 
    trajectory_id: 2
    submap_index: 0
    submap_version: 2
    pose: 
      position: 
        x: 0.312970540041
        y: 0.427891594208
        z: 0.0
      orientation: 
        x: 0.0
        y: 0.0
        z: -0.72498262928
        w: 0.688767150235
---
header: 
  seq: 6
  stamp: 
    secs: 1782384424
    nsecs: 352771656
  frame_id: map
submap: 
  - 
    trajectory_id: 0
    submap_index: 0
    submap_version: 160
    pose: 
      position: 
        x: 0.0
        y: 0.0
        z: 0.0
      orientation: 
        x: 0.0
        y: 0.0
        z: 0.0
        w: 1.0
  - 
    trajectory_id: 0
    submap_index: 1
    submap_version: 160
    pose: 
      position: 
        x: -1.82952728358
        y: 0.0288200796599
        z: 0.0
      orientation: 
        x: -0.0
        y: -0.0
        z: -0.000692961215036
        w: 0.999999759902
  - 
    trajectory_id: 0
    submap_index: 2
    submap_version: 160
    pose: 
      position: 
        x: -2.20492045615
        y: -1.02598367261
        z: 0.0
      orientation: 
        x: -0.0
        y: -0.0
        z: -0.00154661804053
        w: 0.999998803986
  - 
    trajectory_id: 0
    submap_index: 3
    submap_version: 160
    pose: 
      position: 
        x: -2.24673673455
        y: -0.262527717639
        z: 0.0
      orientation: 
        x: -0.0
        y: -0.0
        z: -0.0016837373229
        w: 0.999998582513
  - 
    trajectory_id: 0
    submap_index: 4
    submap_version: 160
    pose: 
      position: 
        x: -0.169842326697
        y: -0.136971480321
        z: 0.0
      orientation: 
        x: -0.0
        y: -0.0
        z: -0.00126677995547
        w: 0.999999197634
  - 
    trajectory_id: 0
    submap_index: 5
    submap_version: 160
    pose: 
      position: 
        x: 0.235564166431
        y: -0.0568673216656
        z: 0.0
      orientation: 
        x: 0.0
        y: 0.0
        z: 0.000606764681138
        w: 0.999999815918
  - 
    trajectory_id: 0
    submap_index: 6
    submap_version: 160
    pose: 
      position: 
        x: 0.32100712133
        y: -2.68659607929
        z: 0.0
      orientation: 
        x: 0.0
        y: 0.0
        z: 0.0043268179489
        w: 0.999990639279
  - 
    trajectory_id: 0
    submap_index: 7
    submap_version: 160
    pose: 
      position: 
        x: 0.767924885222
        y: -3.52962031479
        z: 0.0
      orientation: 
        x: 0.0
        y: 0.0
        z: 0.00624175609598
        w: 0.999980520051
  - 
    trajectory_id: 0
    submap_index: 8
    submap_version: 160
    pose: 
      position: 
        x: 1.35819595451
        y: -3.6013593317
        z: 0.0
      orientation: 
        x: 0.0
        y: 0.0
        z: 0.00710217239759
        w: 0.999974779256
  - 
    trajectory_id: 0
    submap_index: 9
    submap_version: 134
    pose: 
      position: 
        x: 1.37644290018
        y: -3.70502432433
        z: 0.0
      orientation: 
        x: 0.0
        y: 0.0
        z: 0.0088355629129
        w: 0.999960965652
  - 
    trajectory_id: 0
    submap_index: 10
    submap_version: 54
    pose: 
      position: 
        x: 0.251403294671
        y: -2.78684597057
        z: 0.0
      orientation: 
        x: 0.0
        y: 0.0
        z: 0.0115139075211
        w: 0.99993371277
  - 
    trajectory_id: 1
    submap_index: 0
    submap_version: 34
    pose: 
      position: 
        x: 0.150346045707
        y: 0.150665520196
        z: 0.0
      orientation: 
        x: -0.0
        y: -0.0
        z: -0.868970746792
        w: 0.494863457147
  - 
    trajectory_id: 2
    submap_index: 0
    submap_version: 2
    pose: 
      position: 
        x: 0.312970540041
        y: 0.427891594208
        z: 0.0
      orientation: 
        x: 0.0
        y: 0.0
        z: -0.72498262928
        w: 0.688767150235
---
header: 
  seq: 7
  stamp: 
    secs: 1782384424
    nsecs: 625312856
  frame_id: map
submap: 
  - 
    trajectory_id: 0
    submap_index: 0
    submap_version: 160
    pose: 
      position: 
        x: 0.0
        y: 0.0
        z: 0.0
      orientation: 
        x: 0.0
        y: 0.0
        z: 0.0
        w: 1.0
  - 
    trajectory_id: 0
    submap_index: 1
    submap_version: 160
    pose: 
      position: 
        x: -1.82952728358
        y: 0.0288200796599
        z: 0.0
      orientation: 
        x: -0.0
        y: -0.0
        z: -0.000692961215036
        w: 0.999999759902
  - 
    trajectory_id: 0
    submap_index: 2
    submap_version: 160
    pose: 
      position: 
        x: -2.20492045615
        y: -1.02598367261
        z: 0.0
      orientation: 
        x: -0.0
        y: -0.0
        z: -0.00154661804053
        w: 0.999998803986
  - 
    trajectory_id: 0
    submap_index: 3
    submap_version: 160
    pose: 
      position: 
        x: -2.24673673455
        y: -0.262527717639
        z: 0.0
      orientation: 
        x: -0.0
        y: -0.0
        z: -0.0016837373229
        w: 0.999998582513
  - 
    trajectory_id: 0
    submap_index: 4
    submap_version: 160
    pose: 
      position: 
        x: -0.169842326697
        y: -0.136971480321
        z: 0.0
      orientation: 
        x: -0.0
        y: -0.0
        z: -0.00126677995547
        w: 0.999999197634
  - 
    trajectory_id: 0
    submap_index: 5
    submap_version: 160
    pose: 
      position: 
        x: 0.235564166431
        y: -0.0568673216656
        z: 0.0
      orientation: 
        x: 0.0
        y: 0.0
        z: 0.000606764681138
        w: 0.999999815918
  - 
    trajectory_id: 0
    submap_index: 6
    submap_version: 160
    pose: 
      position: 
        x: 0.32100712133
        y: -2.68659607929
        z: 0.0
      orientation: 
        x: 0.0
        y: 0.0
        z: 0.0043268179489
        w: 0.999990639279
  - 
    trajectory_id: 0
    submap_index: 7
    submap_version: 160
    pose: 
      position: 
        x: 0.767924885222
        y: -3.52962031479
        z: 0.0
      orientation: 
        x: 0.0
        y: 0.0
        z: 0.00624175609598
        w: 0.999980520051
  - 
    trajectory_id: 0
    submap_index: 8
    submap_version: 160
    pose: 
      position: 
        x: 1.35819595451
        y: -3.6013593317
        z: 0.0
      orientation: 
        x: 0.0
        y: 0.0
        z: 0.00710217239759
        w: 0.999974779256
  - 
    trajectory_id: 0
    submap_index: 9
    submap_version: 134
    pose: 
      position: 
        x: 1.37644290018
        y: -3.70502432433
        z: 0.0
      orientation: 
        x: 0.0
        y: 0.0
        z: 0.0088355629129
        w: 0.999960965652
  - 
    trajectory_id: 0
    submap_index: 10
    submap_version: 54
    pose: 
      position: 
        x: 0.251403294671
        y: -2.78684597057
        z: 0.0
      orientation: 
        x: 0.0
        y: 0.0
        z: 0.0115139075211
        w: 0.99993371277
  - 
    trajectory_id: 1
    submap_index: 0
    submap_version: 34
    pose: 
      position: 
        x: 0.150346045707
        y: 0.150665520196
        z: 0.0
      orientation: 
        x: -0.0
        y: -0.0
        z: -0.868970746792
        w: 0.494863457147
  - 
    trajectory_id: 2
    submap_index: 0
    submap_version: 2
    pose: 
      position: 
        x: 0.312970540041
        y: 0.427891594208
        z: 0.0
      orientation: 
        x: 0.0
        y: 0.0
        z: -0.72498262928
        w: 0.688767150235
---
header: 
  seq: 8
  stamp: 
    secs: 1782384424
    nsecs: 916277767
  frame_id: map
submap: 
  - 
    trajectory_id: 0
    submap_index: 0
    submap_version: 160
    pose: 
      position: 
        x: 0.0
        y: 0.0
        z: 0.0
      orientation: 
        x: 0.0
        y: 0.0
        z: 0.0
        w: 1.0
  - 
    trajectory_id: 0
    submap_index: 1
    submap_version: 160
    pose: 
      position: 
        x: -1.82952728358
        y: 0.0288200796599
        z: 0.0
      orientation: 
        x: -0.0
        y: -0.0
        z: -0.000692961215036
        w: 0.999999759902
  - 
    trajectory_id: 0
    submap_index: 2
    submap_version: 160
    pose: 
      position: 
        x: -2.20492045615
        y: -1.02598367261
        z: 0.0
      orientation: 
        x: -0.0
        y: -0.0
        z: -0.00154661804053
        w: 0.999998803986
  - 
    trajectory_id: 0
    submap_index: 3
    submap_version: 160
    pose: 
      position: 
        x: -2.24673673455
        y: -0.262527717639
        z: 0.0
      orientation: 
        x: -0.0
        y: -0.0
        z: -0.0016837373229
        w: 0.999998582513
  - 
    trajectory_id: 0
    submap_index: 4
    submap_version: 160
    pose: 
      position: 
        x: -0.169842326697
        y: -0.136971480321
        z: 0.0
      orientation: 
        x: -0.0
        y: -0.0
        z: -0.00126677995547
        w: 0.999999197634
  - 
    trajectory_id: 0
    submap_index: 5
    submap_version: 160
    pose: 
      position: 
        x: 0.235564166431
        y: -0.0568673216656
        z: 0.0
      orientation: 
        x: 0.0
        y: 0.0
        z: 0.000606764681138
        w: 0.999999815918
  - 
    trajectory_id: 0
    submap_index: 6
    submap_version: 160
    pose: 
      position: 
        x: 0.32100712133
        y: -2.68659607929
        z: 0.0
      orientation: 
        x: 0.0
        y: 0.0
        z: 0.0043268179489
        w: 0.999990639279
  - 
    trajectory_id: 0
    submap_index: 7
    submap_version: 160
    pose: 
      position: 
        x: 0.767924885222
        y: -3.52962031479
        z: 0.0
      orientation: 
        x: 0.0
        y: 0.0
        z: 0.00624175609598
        w: 0.999980520051
  - 
    trajectory_id: 0
    submap_index: 8
    submap_version: 160
    pose: 
      position: 
        x: 1.35819595451
        y: -3.6013593317
        z: 0.0
      orientation: 
        x: 0.0
        y: 0.0
        z: 0.00710217239759
        w: 0.999974779256
  - 
    trajectory_id: 0
    submap_index: 9
    submap_version: 134
    pose: 
      position: 
        x: 1.37644290018
        y: -3.70502432433
        z: 0.0
      orientation: 
        x: 0.0
        y: 0.0
        z: 0.0088355629129
        w: 0.999960965652
  - 
    trajectory_id: 0
    submap_index: 10
    submap_version: 54
    pose: 
      position: 
        x: 0.251403294671
        y: -2.78684597057
        z: 0.0
      orientation: 
        x: 0.0
        y: 0.0
        z: 0.0115139075211
        w: 0.99993371277
  - 
    trajectory_id: 1
    submap_index: 0
    submap_version: 34
    pose: 
      position: 
        x: 0.150346045707
        y: 0.150665520196
        z: 0.0
      orientation: 
        x: -0.0
        y: -0.0
        z: -0.868970746792
        w: 0.494863457147
  - 
    trajectory_id: 2
    submap_index: 0
    submap_version: 2
    pose: 
      position: 
        x: 0.312970540041
        y: 0.427891594208
        z: 0.0
      orientation: 
        x: 0.0
        y: 0.0
        z: -0.72498262928
        w: 0.688767150235
---
header: 
  seq: 9
  stamp: 
    secs: 1782384425
    nsecs: 226245774
  frame_id: map
submap: 
  - 
    trajectory_id: 0
    submap_index: 0
    submap_version: 160
    pose: 
      position: 
        x: 0.0
        y: 0.0
        z: 0.0
      orientation: 
        x: 0.0
        y: 0.0
        z: 0.0
        w: 1.0
  - 
    trajectory_id: 0
    submap_index: 1
    submap_version: 160
    pose: 
      position: 
        x: -1.82952728358
        y: 0.0288200796599
        z: 0.0
      orientation: 
        x: -0.0
        y: -0.0
        z: -0.000692961215036
        w: 0.999999759902
  - 
    trajectory_id: 0
    submap_index: 2
    submap_version: 160
    pose: 
      position: 
        x: -2.20492045615
        y: -1.02598367261
        z: 0.0
      orientation: 
        x: -0.0
        y: -0.0
        z: -0.00154661804053
        w: 0.999998803986
  - 
    trajectory_id: 0
    submap_index: 3
    submap_version: 160
    pose: 
      position: 
        x: -2.24673673455
        y: -0.262527717639
        z: 0.0
      orientation: 
        x: -0.0
        y: -0.0
        z: -0.0016837373229
        w: 0.999998582513
  - 
    trajectory_id: 0
    submap_index: 4
    submap_version: 160
    pose: 
      position: 
        x: -0.169842326697
        y: -0.136971480321
        z: 0.0
      orientation: 
        x: -0.0
        y: -0.0
        z: -0.00126677995547
        w: 0.999999197634
  - 
    trajectory_id: 0
    submap_index: 5
    submap_version: 160
    pose: 
      position: 
        x: 0.235564166431
        y: -0.0568673216656
        z: 0.0
      orientation: 
        x: 0.0
        y: 0.0
        z: 0.000606764681138
        w: 0.999999815918
  - 
    trajectory_id: 0
    submap_index: 6
    submap_version: 160
    pose: 
      position: 
        x: 0.32100712133
        y: -2.68659607929
        z: 0.0
      orientation: 
        x: 0.0
        y: 0.0
        z: 0.0043268179489
        w: 0.999990639279
  - 
    trajectory_id: 0
    submap_index: 7
    submap_version: 160
    pose: 
      position: 
        x: 0.767924885222
        y: -3.52962031479
        z: 0.0
      orientation: 
        x: 0.0
        y: 0.0
        z: 0.00624175609598
        w: 0.999980520051
  - 
    trajectory_id: 0
    submap_index: 8
    submap_version: 160
    pose: 
      position: 
        x: 1.35819595451
        y: -3.6013593317
        z: 0.0
      orientation: 
        x: 0.0
        y: 0.0
        z: 0.00710217239759
        w: 0.999974779256
  - 
    trajectory_id: 0
    submap_index: 9
    submap_version: 134
    pose: 
      position: 
        x: 1.37644290018
        y: -3.70502432433
        z: 0.0
      orientation: 
        x: 0.0
        y: 0.0
        z: 0.0088355629129
        w: 0.999960965652
  - 
    trajectory_id: 0
    submap_index: 10
    submap_version: 54
    pose: 
      position: 
        x: 0.251403294671
        y: -2.78684597057
        z: 0.0
      orientation: 
        x: 0.0
        y: 0.0
        z: 0.0115139075211
        w: 0.99993371277
  - 
    trajectory_id: 1
    submap_index: 0
    submap_version: 34
    pose: 
      position: 
        x: 0.150346045707
        y: 0.150665520196
        z: 0.0
      orientation: 
        x: -0.0
        y: -0.0
        z: -0.868970746792
        w: 0.494863457147
  - 
    trajectory_id: 2
    submap_index: 0
    submap_version: 3
    pose: 
      position: 
        x: 0.312970540041
        y: 0.427891594208
        z: 0.0
      orientation: 
        x: 0.0
        y: 0.0
        z: -0.72498262928
        w: 0.688767150235
---
header: 
  seq: 10
  stamp: 
    secs: 1782384425
    nsecs: 524827034
  frame_id: map
submap: 
  - 
    trajectory_id: 0
    submap_index: 0
    submap_version: 160
    pose: 
      position: 
        x: 0.0
        y: 0.0
        z: 0.0
      orientation: 
        x: 0.0
        y: 0.0
        z: 0.0
        w: 1.0
  - 
    trajectory_id: 0
    submap_index: 1
    submap_version: 160
    pose: 
      position: 
        x: -1.82952728358
        y: 0.0288200796599
        z: 0.0
      orientation: 
        x: -0.0
        y: -0.0
        z: -0.000692961215036
        w: 0.999999759902
  - 
    trajectory_id: 0
    submap_index: 2
    submap_version: 160
    pose: 
      position: 
        x: -2.20492045615
        y: -1.02598367261
        z: 0.0
      orientation: 
        x: -0.0
        y: -0.0
        z: -0.00154661804053
        w: 0.999998803986
  - 
    trajectory_id: 0
    submap_index: 3
    submap_version: 160
    pose: 
      position: 
        x: -2.24673673455
        y: -0.262527717639
        z: 0.0
      orientation: 
        x: -0.0
        y: -0.0
        z: -0.0016837373229
        w: 0.999998582513
  - 
    trajectory_id: 0
    submap_index: 4
    submap_version: 160
    pose: 
      position: 
        x: -0.169842326697
        y: -0.136971480321
        z: 0.0
      orientation: 
        x: -0.0
        y: -0.0
        z: -0.00126677995547
        w: 0.999999197634
  - 
    trajectory_id: 0
    submap_index: 5
    submap_version: 160
    pose: 
      position: 
        x: 0.235564166431
        y: -0.0568673216656
        z: 0.0
      orientation: 
        x: 0.0
        y: 0.0
        z: 0.000606764681138
        w: 0.999999815918
  - 
    trajectory_id: 0
    submap_index: 6
    submap_version: 160
    pose: 
      position: 
        x: 0.32100712133
        y: -2.68659607929
        z: 0.0
      orientation: 
        x: 0.0
        y: 0.0
        z: 0.0043268179489
        w: 0.999990639279
  - 
    trajectory_id: 0
    submap_index: 7
    submap_version: 160
    pose: 
      position: 
        x: 0.767924885222
        y: -3.52962031479
        z: 0.0
      orientation: 
        x: 0.0
        y: 0.0
        z: 0.00624175609598
        w: 0.999980520051
  - 
    trajectory_id: 0
    submap_index: 8
    submap_version: 160
    pose: 
      position: 
        x: 1.35819595451
        y: -3.6013593317
        z: 0.0
      orientation: 
        x: 0.0
        y: 0.0
        z: 0.00710217239759
        w: 0.999974779256
  - 
    trajectory_id: 0
    submap_index: 9
    submap_version: 134
    pose: 
      position: 
        x: 1.37644290018
        y: -3.70502432433
        z: 0.0
      orientation: 
        x: 0.0
        y: 0.0
        z: 0.0088355629129
        w: 0.999960965652
  - 
    trajectory_id: 0
    submap_index: 10
    submap_version: 54
    pose: 
      position: 
        x: 0.251403294671
        y: -2.78684597057
        z: 0.0
      orientation: 
        x: 0.0
        y: 0.0
        z: 0.0115139075211
        w: 0.99993371277
  - 
    trajectory_id: 1
    submap_index: 0
    submap_version: 34
    pose: 
      position: 
        x: 0.150346045707
        y: 0.150665520196
        z: 0.0
      orientation: 
        x: -0.0
        y: -0.0
        z: -0.868970746792
        w: 0.494863457147
  - 
    trajectory_id: 2
    submap_index: 0
    submap_version: 3
    pose: 
      position: 
        x: 0.312970540041
        y: 0.427891594208
        z: 0.0
      orientation: 
        x: 0.0
        y: 0.0
        z: -0.72498262928
        w: 0.688767150235
---
header: 
  seq: 11
  stamp: 
    secs: 1782384425
    nsecs: 846269180
  frame_id: map
submap: 
  - 
    trajectory_id: 0
    submap_index: 0
    submap_version: 160
    pose: 
      position: 
        x: 0.0
        y: 0.0
        z: 0.0
      orientation: 
        x: 0.0
        y: 0.0
        z: 0.0
        w: 1.0
  - 
    trajectory_id: 0
    submap_index: 1
    submap_version: 160
    pose: 
      position: 
        x: -1.82952728358
        y: 0.0288200796599
        z: 0.0
      orientation: 
        x: -0.0
        y: -0.0
        z: -0.000692961215036
        w: 0.999999759902
  - 
    trajectory_id: 0
    submap_index: 2
    submap_version: 160
    pose: 
      position: 
        x: -2.20492045615
        y: -1.02598367261
        z: 0.0
      orientation: 
        x: -0.0
        y: -0.0
        z: -0.00154661804053
        w: 0.999998803986
  - 
    trajectory_id: 0
    submap_index: 3
    submap_version: 160
    pose: 
      position: 
        x: -2.24673673455
        y: -0.262527717639
        z: 0.0
      orientation: 
        x: -0.0
        y: -0.0
        z: -0.0016837373229
        w: 0.999998582513
  - 
    trajectory_id: 0
    submap_index: 4
    submap_version: 160
    pose: 
      position: 
        x: -0.169842326697
        y: -0.136971480321
        z: 0.0
      orientation: 
        x: -0.0
        y: -0.0
        z: -0.00126677995547
        w: 0.999999197634
  - 
    trajectory_id: 0
    submap_index: 5
    submap_version: 160
    pose: 
      position: 
        x: 0.235564166431
        y: -0.0568673216656
        z: 0.0
      orientation: 
        x: 0.0
        y: 0.0
        z: 0.000606764681138
        w: 0.999999815918
  - 
    trajectory_id: 0
    submap_index: 6
    submap_version: 160
    pose: 
      position: 
        x: 0.32100712133
        y: -2.68659607929
        z: 0.0
      orientation: 
        x: 0.0
        y: 0.0
        z: 0.0043268179489
        w: 0.999990639279
  - 
    trajectory_id: 0
    submap_index: 7
    submap_version: 160
    pose: 
      position: 
        x: 0.767924885222
        y: -3.52962031479
        z: 0.0
      orientation: 
        x: 0.0
        y: 0.0
        z: 0.00624175609598
        w: 0.999980520051
  - 
    trajectory_id: 0
    submap_index: 8
    submap_version: 160
    pose: 
      position: 
        x: 1.35819595451
        y: -3.6013593317
        z: 0.0
      orientation: 
        x: 0.0
        y: 0.0
        z: 0.00710217239759
        w: 0.999974779256
  - 
    trajectory_id: 0
    submap_index: 9
    submap_version: 134
    pose: 
      position: 
        x: 1.37644290018
        y: -3.70502432433
        z: 0.0
      orientation: 
        x: 0.0
        y: 0.0
        z: 0.0088355629129
        w: 0.999960965652
  - 
    trajectory_id: 0
    submap_index: 10
    submap_version: 54
    pose: 
      position: 
        x: 0.251403294671
        y: -2.78684597057
        z: 0.0
      orientation: 
        x: 0.0
        y: 0.0
        z: 0.0115139075211
        w: 0.99993371277
  - 
    trajectory_id: 1
    submap_index: 0
    submap_version: 34
    pose: 
      position: 
        x: 0.150346045707
        y: 0.150665520196
        z: 0.0
      orientation: 
        x: -0.0
        y: -0.0
        z: -0.868970746792
        w: 0.494863457147
  - 
    trajectory_id: 2
    submap_index: 0
    submap_version: 3
    pose: 
      position: 
        x: 0.312970540041
        y: 0.427891594208
        z: 0.0
      orientation: 
        x: 0.0
        y: 0.0
        z: -0.72498262928
        w: 0.688767150235
---
header: 
  seq: 12
  stamp: 
    secs: 1782384426
    nsecs: 136448027
  frame_id: map
submap: 
  - 
    trajectory_id: 0
    submap_index: 0
    submap_version: 160
    pose: 
      position: 
        x: 0.0
        y: 0.0
        z: 0.0
      orientation: 
        x: 0.0
        y: 0.0
        z: 0.0
        w: 1.0
  - 
    trajectory_id: 0
    submap_index: 1
    submap_version: 160
    pose: 
      position: 
        x: -1.82952728358
        y: 0.0288200796599
        z: 0.0
      orientation: 
        x: -0.0
        y: -0.0
        z: -0.000692961215036
        w: 0.999999759902
  - 
    trajectory_id: 0
    submap_index: 2
    submap_version: 160
    pose: 
      position: 
        x: -2.20492045615
        y: -1.02598367261
        z: 0.0
      orientation: 
        x: -0.0
        y: -0.0
        z: -0.00154661804053
        w: 0.999998803986
  - 
    trajectory_id: 0
    submap_index: 3
    submap_version: 160
    pose: 
      position: 
        x: -2.24673673455
        y: -0.262527717639
        z: 0.0
      orientation: 
        x: -0.0
        y: -0.0
        z: -0.0016837373229
        w: 0.999998582513
  - 
    trajectory_id: 0
    submap_index: 4
    submap_version: 160
    pose: 
      position: 
        x: -0.169842326697
        y: -0.136971480321
        z: 0.0
      orientation: 
        x: -0.0
        y: -0.0
        z: -0.00126677995547
        w: 0.999999197634
  - 
    trajectory_id: 0
    submap_index: 5
    submap_version: 160
    pose: 
      position: 
        x: 0.235564166431
        y: -0.0568673216656
        z: 0.0
      orientation: 
        x: 0.0
        y: 0.0
        z: 0.000606764681138
        w: 0.999999815918
  - 
    trajectory_id: 0
    submap_index: 6
    submap_version: 160
    pose: 
      position: 
        x: 0.32100712133
        y: -2.68659607929
        z: 0.0
      orientation: 
        x: 0.0
        y: 0.0
        z: 0.0043268179489
        w: 0.999990639279
  - 
    trajectory_id: 0
    submap_index: 7
    submap_version: 160
    pose: 
      position: 
        x: 0.767924885222
        y: -3.52962031479
        z: 0.0
      orientation: 
        x: 0.0
        y: 0.0
        z: 0.00624175609598
        w: 0.999980520051
  - 
    trajectory_id: 0
    submap_index: 8
    submap_version: 160
    pose: 
      position: 
        x: 1.35819595451
        y: -3.6013593317
        z: 0.0
      orientation: 
        x: 0.0
        y: 0.0
        z: 0.00710217239759
        w: 0.999974779256
  - 
    trajectory_id: 0
    submap_index: 9
    submap_version: 134
    pose: 
      position: 
        x: 1.37644290018
        y: -3.70502432433
        z: 0.0
      orientation: 
        x: 0.0
        y: 0.0
        z: 0.0088355629129
        w: 0.999960965652
  - 
    trajectory_id: 0
    submap_index: 10
    submap_version: 54
    pose: 
      position: 
        x: 0.251403294671
        y: -2.78684597057
        z: 0.0
      orientation: 
        x: 0.0
        y: 0.0
        z: 0.0115139075211
        w: 0.99993371277
  - 
    trajectory_id: 1
    submap_index: 0
    submap_version: 34
    pose: 
      position: 
        x: 0.150346045707
        y: 0.150665520196
        z: 0.0
      orientation: 
        x: -0.0
        y: -0.0
        z: -0.868970746792
        w: 0.494863457147
  - 
    trajectory_id: 2
    submap_index: 0
    submap_version: 4
    pose: 
      position: 
        x: 0.312970540041
        y: 0.427891594208
        z: 0.0
      orientation: 
        x: 0.0
        y: 0.0
        z: -0.72498262928
        w: 0.688767150235
---
header: 
  seq: 13
  stamp: 
    secs: 1782384426
    nsecs: 433429662
  frame_id: map
submap: 
  - 
    trajectory_id: 0
    submap_index: 0
    submap_version: 160
    pose: 
      position: 
        x: 0.0
        y: 0.0
        z: 0.0
      orientation: 
        x: 0.0
        y: 0.0
        z: 0.0
        w: 1.0
  - 
    trajectory_id: 0
    submap_index: 1
    submap_version: 160
    pose: 
      position: 
        x: -1.82952728358
        y: 0.0288200796599
        z: 0.0
      orientation: 
        x: -0.0
        y: -0.0
        z: -0.000692961215036
        w: 0.999999759902
  - 
    trajectory_id: 0
    submap_index: 2
    submap_version: 160
    pose: 
      position: 
        x: -2.20492045615
        y: -1.02598367261
        z: 0.0
      orientation: 
        x: -0.0
        y: -0.0
        z: -0.00154661804053
        w: 0.999998803986
  - 
    trajectory_id: 0
    submap_index: 3
    submap_version: 160
    pose: 
      position: 
        x: -2.24673673455
        y: -0.262527717639
        z: 0.0
      orientation: 
        x: -0.0
        y: -0.0
        z: -0.0016837373229
        w: 0.999998582513
  - 
    trajectory_id: 0
    submap_index: 4
    submap_version: 160
    pose: 
      position: 
        x: -0.169842326697
        y: -0.136971480321
        z: 0.0
      orientation: 
        x: -0.0
        y: -0.0
        z: -0.00126677995547
        w: 0.999999197634
  - 
    trajectory_id: 0
    submap_index: 5
    submap_version: 160
    pose: 
      position: 
        x: 0.235564166431
        y: -0.0568673216656
        z: 0.0
      orientation: 
        x: 0.0
        y: 0.0
        z: 0.000606764681138
        w: 0.999999815918
  - 
    trajectory_id: 0
    submap_index: 6
    submap_version: 160
    pose: 
      position: 
        x: 0.32100712133
        y: -2.68659607929
        z: 0.0
      orientation: 
        x: 0.0
        y: 0.0
        z: 0.0043268179489
        w: 0.999990639279
  - 
    trajectory_id: 0
    submap_index: 7
    submap_version: 160
    pose: 
      position: 
        x: 0.767924885222
        y: -3.52962031479
        z: 0.0
      orientation: 
        x: 0.0
        y: 0.0
        z: 0.00624175609598
        w: 0.999980520051
  - 
    trajectory_id: 0
    submap_index: 8
    submap_version: 160
    pose: 
      position: 
        x: 1.35819595451
        y: -3.6013593317
        z: 0.0
      orientation: 
        x: 0.0
        y: 0.0
        z: 0.00710217239759
        w: 0.999974779256
  - 
    trajectory_id: 0
    submap_index: 9
    submap_version: 134
    pose: 
      position: 
        x: 1.37644290018
        y: -3.70502432433
        z: 0.0
      orientation: 
        x: 0.0
        y: 0.0
        z: 0.0088355629129
        w: 0.999960965652
  - 
    trajectory_id: 0
    submap_index: 10
    submap_version: 54
    pose: 
      position: 
        x: 0.251403294671
        y: -2.78684597057
        z: 0.0
      orientation: 
        x: 0.0
        y: 0.0
        z: 0.0115139075211
        w: 0.99993371277
  - 
    trajectory_id: 1
    submap_index: 0
    submap_version: 34
    pose: 
      position: 
        x: 0.150346045707
        y: 0.150665520196
        z: 0.0
      orientation: 
        x: -0.0
        y: -0.0
        z: -0.868970746792
        w: 0.494863457147
  - 
    trajectory_id: 2
    submap_index: 0
    submap_version: 4
    pose: 
      position: 
        x: 0.312970540041
        y: 0.427891594208
        z: 0.0
      orientation: 
        x: 0.0
        y: 0.0
        z: -0.72498262928
        w: 0.688767150235
---
header: 
  seq: 14
  stamp: 
    secs: 1782384426
    nsecs: 728496004
  frame_id: map
submap: 
  - 
    trajectory_id: 0
    submap_index: 0
    submap_version: 160
    pose: 
      position: 
        x: 0.0
        y: 0.0
        z: 0.0
      orientation: 
        x: 0.0
        y: 0.0
        z: 0.0
        w: 1.0
  - 
    trajectory_id: 0
    submap_index: 1
    submap_version: 160
    pose: 
      position: 
        x: -1.82952728358
        y: 0.0288200796599
        z: 0.0
      orientation: 
        x: -0.0
        y: -0.0
        z: -0.000692961215036
        w: 0.999999759902
  - 
    trajectory_id: 0
    submap_index: 2
    submap_version: 160
    pose: 
      position: 
        x: -2.20492045615
        y: -1.02598367261
        z: 0.0
      orientation: 
        x: -0.0
        y: -0.0
        z: -0.00154661804053
        w: 0.999998803986
  - 
    trajectory_id: 0
    submap_index: 3
    submap_version: 160
    pose: 
      position: 
        x: -2.24673673455
        y: -0.262527717639
        z: 0.0
      orientation: 
        x: -0.0
        y: -0.0
        z: -0.0016837373229
        w: 0.999998582513
  - 
    trajectory_id: 0
    submap_index: 4
    submap_version: 160
    pose: 
      position: 
        x: -0.169842326697
        y: -0.136971480321
        z: 0.0
      orientation: 
        x: -0.0
        y: -0.0
        z: -0.00126677995547
        w: 0.999999197634
  - 
    trajectory_id: 0
    submap_index: 5
    submap_version: 160
    pose: 
      position: 
        x: 0.235564166431
        y: -0.0568673216656
        z: 0.0
      orientation: 
        x: 0.0
        y: 0.0
        z: 0.000606764681138
        w: 0.999999815918
  - 
    trajectory_id: 0
    submap_index: 6
    submap_version: 160
    pose: 
      position: 
        x: 0.32100712133
        y: -2.68659607929
        z: 0.0
      orientation: 
        x: 0.0
        y: 0.0
        z: 0.0043268179489
        w: 0.999990639279
  - 
    trajectory_id: 0
    submap_index: 7
    submap_version: 160
    pose: 
      position: 
        x: 0.767924885222
        y: -3.52962031479
        z: 0.0
      orientation: 
        x: 0.0
        y: 0.0
        z: 0.00624175609598
        w: 0.999980520051
  - 
    trajectory_id: 0
    submap_index: 8
    submap_version: 160
    pose: 
      position: 
        x: 1.35819595451
        y: -3.6013593317
        z: 0.0
      orientation: 
        x: 0.0
        y: 0.0
        z: 0.00710217239759
        w: 0.999974779256
  - 
    trajectory_id: 0
    submap_index: 9
    submap_version: 134
    pose: 
      position: 
        x: 1.37644290018
        y: -3.70502432433
        z: 0.0
      orientation: 
        x: 0.0
        y: 0.0
        z: 0.0088355629129
        w: 0.999960965652
  - 
    trajectory_id: 0
    submap_index: 10
    submap_version: 54
    pose: 
      position: 
        x: 0.251403294671
        y: -2.78684597057
        z: 0.0
      orientation: 
        x: 0.0
        y: 0.0
        z: 0.0115139075211
        w: 0.99993371277
  - 
    trajectory_id: 1
    submap_index: 0
    submap_version: 34
    pose: 
      position: 
        x: 0.150346045707
        y: 0.150665520196
        z: 0.0
      orientation: 
        x: -0.0
        y: -0.0
        z: -0.868970746792
        w: 0.494863457147
  - 
    trajectory_id: 2
    submap_index: 0
    submap_version: 4
    pose: 
      position: 
        x: 0.312970540041
        y: 0.427891594208
        z: 0.0
      orientation: 
        x: 0.0
        y: 0.0
        z: -0.72498262928
        w: 0.688767150235
---
header: 
  seq: 15
  stamp: 
    secs: 1782384427
    nsecs:  11790677
  frame_id: map
submap: 
  - 
    trajectory_id: 0
    submap_index: 0
    submap_version: 160
    pose: 
      position: 
        x: 0.0
        y: 0.0
        z: 0.0
      orientation: 
        x: 0.0
        y: 0.0
        z: 0.0
        w: 1.0
  - 
    trajectory_id: 0
    submap_index: 1
    submap_version: 160
    pose: 
      position: 
        x: -1.82952728358
        y: 0.0288200796599
        z: 0.0
      orientation: 
        x: -0.0
        y: -0.0
        z: -0.000692961215036
        w: 0.999999759902
  - 
    trajectory_id: 0
    submap_index: 2
    submap_version: 160
    pose: 
      position: 
        x: -2.20492045615
        y: -1.02598367261
        z: 0.0
      orientation: 
        x: -0.0
        y: -0.0
        z: -0.00154661804053
        w: 0.999998803986
  - 
    trajectory_id: 0
    submap_index: 3
    submap_version: 160
    pose: 
      position: 
        x: -2.24673673455
        y: -0.262527717639
        z: 0.0
      orientation: 
        x: -0.0
        y: -0.0
        z: -0.0016837373229
        w: 0.999998582513
  - 
    trajectory_id: 0
    submap_index: 4
    submap_version: 160
    pose: 
      position: 
        x: -0.169842326697
        y: -0.136971480321
        z: 0.0
      orientation: 
        x: -0.0
        y: -0.0
        z: -0.00126677995547
        w: 0.999999197634
  - 
    trajectory_id: 0
    submap_index: 5
    submap_version: 160
    pose: 
      position: 
        x: 0.235564166431
        y: -0.0568673216656
        z: 0.0
      orientation: 
        x: 0.0
        y: 0.0
        z: 0.000606764681138
        w: 0.999999815918
  - 
    trajectory_id: 0
    submap_index: 6
    submap_version: 160
    pose: 
      position: 
        x: 0.32100712133
        y: -2.68659607929
        z: 0.0
      orientation: 
        x: 0.0
        y: 0.0
        z: 0.0043268179489
        w: 0.999990639279
  - 
    trajectory_id: 0
    submap_index: 7
    submap_version: 160
    pose: 
      position: 
        x: 0.767924885222
        y: -3.52962031479
        z: 0.0
      orientation: 
        x: 0.0
        y: 0.0
        z: 0.00624175609598
        w: 0.999980520051
  - 
    trajectory_id: 0
    submap_index: 8
    submap_version: 160
    pose: 
      position: 
        x: 1.35819595451
        y: -3.6013593317
        z: 0.0
      orientation: 
        x: 0.0
        y: 0.0
        z: 0.00710217239759
        w: 0.999974779256
  - 
    trajectory_id: 0
    submap_index: 9
    submap_version: 134
    pose: 
      position: 
        x: 1.37644290018
        y: -3.70502432433
        z: 0.0
      orientation: 
        x: 0.0
        y: 0.0
        z: 0.0088355629129
        w: 0.999960965652
  - 
    trajectory_id: 0
    submap_index: 10
    submap_version: 54
    pose: 
      position: 
        x: 0.251403294671
        y: -2.78684597057
        z: 0.0
      orientation: 
        x: 0.0
        y: 0.0
        z: 0.0115139075211
        w: 0.99993371277
  - 
    trajectory_id: 1
    submap_index: 0
    submap_version: 34
    pose: 
      position: 
        x: 0.150346045707
        y: 0.150665520196
        z: 0.0
      orientation: 
        x: -0.0
        y: -0.0
        z: -0.868970746792
        w: 0.494863457147
  - 
    trajectory_id: 2
    submap_index: 0
    submap_version: 4
    pose: 
      position: 
        x: 0.312970540041
        y: 0.427891594208
        z: 0.0
      orientation: 
        x: 0.0
        y: 0.0
        z: -0.72498262928
        w: 0.688767150235
---
header: 
  seq: 16
  stamp: 
    secs: 1782384427
    nsecs: 332076920
  frame_id: map
submap: 
  - 
    trajectory_id: 0
    submap_index: 0
    submap_version: 160
    pose: 
      position: 
        x: 0.0
        y: 0.0
        z: 0.0
      orientation: 
        x: 0.0
        y: 0.0
        z: 0.0
        w: 1.0
  - 
    trajectory_id: 0
    submap_index: 1
    submap_version: 160
    pose: 
      position: 
        x: -1.82952728358
        y: 0.0288200796599
        z: 0.0
      orientation: 
        x: -0.0
        y: -0.0
        z: -0.000692961215036
        w: 0.999999759902
  - 
    trajectory_id: 0
    submap_index: 2
    submap_version: 160
    pose: 
      position: 
        x: -2.20492045615
        y: -1.02598367261
        z: 0.0
      orientation: 
        x: -0.0
        y: -0.0
        z: -0.00154661804053
        w: 0.999998803986
  - 
    trajectory_id: 0
    submap_index: 3
    submap_version: 160
    pose: 
      position: 
        x: -2.24673673455
        y: -0.262527717639
        z: 0.0
      orientation: 
        x: -0.0
        y: -0.0
        z: -0.0016837373229
        w: 0.999998582513
  - 
    trajectory_id: 0
    submap_index: 4
    submap_version: 160
    pose: 
      position: 
        x: -0.169842326697
        y: -0.136971480321
        z: 0.0
      orientation: 
        x: -0.0
        y: -0.0
        z: -0.00126677995547
        w: 0.999999197634
  - 
    trajectory_id: 0
    submap_index: 5
    submap_version: 160
    pose: 
      position: 
        x: 0.235564166431
        y: -0.0568673216656
        z: 0.0
      orientation: 
        x: 0.0
        y: 0.0
        z: 0.000606764681138
        w: 0.999999815918
  - 
    trajectory_id: 0
    submap_index: 6
    submap_version: 160
    pose: 
      position: 
        x: 0.32100712133
        y: -2.68659607929
        z: 0.0
      orientation: 
        x: 0.0
        y: 0.0
        z: 0.0043268179489
        w: 0.999990639279
  - 
    trajectory_id: 0
    submap_index: 7
    submap_version: 160
    pose: 
      position: 
        x: 0.767924885222
        y: -3.52962031479
        z: 0.0
      orientation: 
        x: 0.0
        y: 0.0
        z: 0.00624175609598
        w: 0.999980520051
  - 
    trajectory_id: 0
    submap_index: 8
    submap_version: 160
    pose: 
      position: 
        x: 1.35819595451
        y: -3.6013593317
        z: 0.0
      orientation: 
        x: 0.0
        y: 0.0
        z: 0.00710217239759
        w: 0.999974779256
  - 
    trajectory_id: 0
    submap_index: 9
    submap_version: 134
    pose: 
      position: 
        x: 1.37644290018
        y: -3.70502432433
        z: 0.0
      orientation: 
        x: 0.0
        y: 0.0
        z: 0.0088355629129
        w: 0.999960965652
  - 
    trajectory_id: 0
    submap_index: 10
    submap_version: 54
    pose: 
      position: 
        x: 0.251403294671
        y: -2.78684597057
        z: 0.0
      orientation: 
        x: 0.0
        y: 0.0
        z: 0.0115139075211
        w: 0.99993371277
  - 
    trajectory_id: 1
    submap_index: 0
    submap_version: 34
    pose: 
      position: 
        x: 0.150346045707
        y: 0.150665520196
        z: 0.0
      orientation: 
        x: -0.0
        y: -0.0
        z: -0.868970746792
        w: 0.494863457147
  - 
    trajectory_id: 2
    submap_index: 0
    submap_version: 5
    pose: 
      position: 
        x: 0.312970540041
        y: 0.427891594208
        z: 0.0
      orientation: 
        x: 0.0
        y: 0.0
        z: -0.72498262928
        w: 0.688767150235
---
header: 
  seq: 17
  stamp: 
    secs: 1782384427
